[
  {
    "pinYin" : "Beijing",
    "parentId" : "100000",
    "shortName" : "北京",
    "cityCode" : "",
    "mergerName" : "中国,北京",
    "levelType" : "1",
    "lng" : "116.405285",
    "lat" : "39.904989",
    "ID" : "110000",
    "name" : "北京"
  },
  {
    "pinYin" : "Beijing",
    "parentId" : "110000",
    "shortName" : "北京",
    "cityCode" : "010",
    "mergerName" : "中国,北京,北京市",
    "levelType" : "2",
    "lng" : "116.405285",
    "lat" : "39.904989",
    "ID" : "110100",
    "name" : "北京市"
  },
  {
    "pinYin" : "Dongcheng",
    "parentId" : "110100",
    "shortName" : "东城",
    "cityCode" : "010",
    "mergerName" : "中国,北京,北京市,东城区",
    "levelType" : "3",
    "lng" : "116.41005",
    "lat" : "39.93157",
    "ID" : "110101",
    "name" : "东城区"
  },
  {
    "pinYin" : "Xicheng",
    "parentId" : "110100",
    "shortName" : "西城",
    "cityCode" : "010",
    "mergerName" : "中国,北京,北京市,西城区",
    "levelType" : "3",
    "lng" : "116.36003",
    "lat" : "39.9305",
    "ID" : "110102",
    "name" : "西城区"
  },
  {
    "pinYin" : "Chaoyang",
    "parentId" : "110100",
    "shortName" : "朝阳",
    "cityCode" : "010",
    "mergerName" : "中国,北京,北京市,朝阳区",
    "levelType" : "3",
    "lng" : "116.48548",
    "lat" : "39.9484",
    "ID" : "110105",
    "name" : "朝阳区"
  },
  {
    "pinYin" : "Fengtai",
    "parentId" : "110100",
    "shortName" : "丰台",
    "cityCode" : "010",
    "mergerName" : "中国,北京,北京市,丰台区",
    "levelType" : "3",
    "lng" : "116.28625",
    "lat" : "39.8585",
    "ID" : "110106",
    "name" : "丰台区"
  },
  {
    "pinYin" : "Shijingshan",
    "parentId" : "110100",
    "shortName" : "石景山",
    "cityCode" : "010",
    "mergerName" : "中国,北京,北京市,石景山区",
    "levelType" : "3",
    "lng" : "116.2229",
    "lat" : "39.90564",
    "ID" : "110107",
    "name" : "石景山区"
  },
  {
    "pinYin" : "Haidian",
    "parentId" : "110100",
    "shortName" : "海淀",
    "cityCode" : "010",
    "mergerName" : "中国,北京,北京市,海淀区",
    "levelType" : "3",
    "lng" : "116.29812",
    "lat" : "39.95931",
    "ID" : "110108",
    "name" : "海淀区"
  },
  {
    "pinYin" : "Mentougou",
    "parentId" : "110100",
    "shortName" : "门头沟",
    "cityCode" : "010",
    "mergerName" : "中国,北京,北京市,门头沟区",
    "levelType" : "3",
    "lng" : "116.10137",
    "lat" : "39.94043",
    "ID" : "110109",
    "name" : "门头沟区"
  },
  {
    "pinYin" : "Fangshan",
    "parentId" : "110100",
    "shortName" : "房山",
    "cityCode" : "010",
    "mergerName" : "中国,北京,北京市,房山区",
    "levelType" : "3",
    "lng" : "116.14257",
    "lat" : "39.74786",
    "ID" : "110111",
    "name" : "房山区"
  },
  {
    "pinYin" : "Tongzhou",
    "parentId" : "110100",
    "shortName" : "通州",
    "cityCode" : "010",
    "mergerName" : "中国,北京,北京市,通州区",
    "levelType" : "3",
    "lng" : "116.65716",
    "lat" : "39.90966",
    "ID" : "110112",
    "name" : "通州区"
  },
  {
    "pinYin" : "Shunyi",
    "parentId" : "110100",
    "shortName" : "顺义",
    "cityCode" : "010",
    "mergerName" : "中国,北京,北京市,顺义区",
    "levelType" : "3",
    "lng" : "116.65417",
    "lat" : "40.1302",
    "ID" : "110113",
    "name" : "顺义区"
  },
  {
    "pinYin" : "Changping",
    "parentId" : "110100",
    "shortName" : "昌平",
    "cityCode" : "010",
    "mergerName" : "中国,北京,北京市,昌平区",
    "levelType" : "3",
    "lng" : "116.2312",
    "lat" : "40.22072",
    "ID" : "110114",
    "name" : "昌平区"
  },
  {
    "pinYin" : "Daxing",
    "parentId" : "110100",
    "shortName" : "大兴",
    "cityCode" : "010",
    "mergerName" : "中国,北京,北京市,大兴区",
    "levelType" : "3",
    "lng" : "116.34149",
    "lat" : "39.72668",
    "ID" : "110115",
    "name" : "大兴区"
  },
  {
    "pinYin" : "Huairou",
    "parentId" : "110100",
    "shortName" : "怀柔",
    "cityCode" : "010",
    "mergerName" : "中国,北京,北京市,怀柔区",
    "levelType" : "3",
    "lng" : "116.63168",
    "lat" : "40.31602",
    "ID" : "110116",
    "name" : "怀柔区"
  },
  {
    "pinYin" : "Pinggu",
    "parentId" : "110100",
    "shortName" : "平谷",
    "cityCode" : "010",
    "mergerName" : "中国,北京,北京市,平谷区",
    "levelType" : "3",
    "lng" : "117.12133",
    "lat" : "40.14056",
    "ID" : "110117",
    "name" : "平谷区"
  },
  {
    "pinYin" : "Miyun",
    "parentId" : "110100",
    "shortName" : "密云",
    "cityCode" : "010",
    "mergerName" : "中国,北京,北京市,密云县",
    "levelType" : "3",
    "lng" : "116.84295",
    "lat" : "40.37618",
    "ID" : "110228",
    "name" : "密云县"
  },
  {
    "pinYin" : "Yanqing",
    "parentId" : "110100",
    "shortName" : "延庆",
    "cityCode" : "010",
    "mergerName" : "中国,北京,北京市,延庆县",
    "levelType" : "3",
    "lng" : "115.97494",
    "lat" : "40.45672",
    "ID" : "110229",
    "name" : "延庆县"
  },
  {
    "pinYin" : "Tianjin",
    "parentId" : "100000",
    "shortName" : "天津",
    "cityCode" : "",
    "mergerName" : "中国,天津",
    "levelType" : "1",
    "lng" : "117.190182",
    "lat" : "39.125596",
    "ID" : "120000",
    "name" : "天津"
  },
  {
    "pinYin" : "Tianjin",
    "parentId" : "120000",
    "shortName" : "天津",
    "cityCode" : "022",
    "mergerName" : "中国,天津,天津市",
    "levelType" : "2",
    "lng" : "117.190182",
    "lat" : "39.125596",
    "ID" : "120100",
    "name" : "天津市"
  },
  {
    "pinYin" : "Heping",
    "parentId" : "120100",
    "shortName" : "和平",
    "cityCode" : "022",
    "mergerName" : "中国,天津,天津市,和平区",
    "levelType" : "3",
    "lng" : "117.21456",
    "lat" : "39.11718",
    "ID" : "120101",
    "name" : "和平区"
  },
  {
    "pinYin" : "Hedong",
    "parentId" : "120100",
    "shortName" : "河东",
    "cityCode" : "022",
    "mergerName" : "中国,天津,天津市,河东区",
    "levelType" : "3",
    "lng" : "117.22562",
    "lat" : "39.12318",
    "ID" : "120102",
    "name" : "河东区"
  },
  {
    "pinYin" : "Hexi",
    "parentId" : "120100",
    "shortName" : "河西",
    "cityCode" : "022",
    "mergerName" : "中国,天津,天津市,河西区",
    "levelType" : "3",
    "lng" : "117.22327",
    "lat" : "39.10959",
    "ID" : "120103",
    "name" : "河西区"
  },
  {
    "pinYin" : "Nankai",
    "parentId" : "120100",
    "shortName" : "南开",
    "cityCode" : "022",
    "mergerName" : "中国,天津,天津市,南开区",
    "levelType" : "3",
    "lng" : "117.15074",
    "lat" : "39.13821",
    "ID" : "120104",
    "name" : "南开区"
  },
  {
    "pinYin" : "Hebei",
    "parentId" : "120100",
    "shortName" : "河北",
    "cityCode" : "022",
    "mergerName" : "中国,天津,天津市,河北区",
    "levelType" : "3",
    "lng" : "117.19697",
    "lat" : "39.14816",
    "ID" : "120105",
    "name" : "河北区"
  },
  {
    "pinYin" : "Hongqiao",
    "parentId" : "120100",
    "shortName" : "红桥",
    "cityCode" : "022",
    "mergerName" : "中国,天津,天津市,红桥区",
    "levelType" : "3",
    "lng" : "117.15145",
    "lat" : "39.16715",
    "ID" : "120106",
    "name" : "红桥区"
  },
  {
    "pinYin" : "Dongli",
    "parentId" : "120100",
    "shortName" : "东丽",
    "cityCode" : "022",
    "mergerName" : "中国,天津,天津市,东丽区",
    "levelType" : "3",
    "lng" : "117.31436",
    "lat" : "39.0863",
    "ID" : "120110",
    "name" : "东丽区"
  },
  {
    "pinYin" : "Xiqing",
    "parentId" : "120100",
    "shortName" : "西青",
    "cityCode" : "022",
    "mergerName" : "中国,天津,天津市,西青区",
    "levelType" : "3",
    "lng" : "117.00927",
    "lat" : "39.14123",
    "ID" : "120111",
    "name" : "西青区"
  },
  {
    "pinYin" : "Jinnan",
    "parentId" : "120100",
    "shortName" : "津南",
    "cityCode" : "022",
    "mergerName" : "中国,天津,天津市,津南区",
    "levelType" : "3",
    "lng" : "117.38537",
    "lat" : "38.99139",
    "ID" : "120112",
    "name" : "津南区"
  },
  {
    "pinYin" : "Beichen",
    "parentId" : "120100",
    "shortName" : "北辰",
    "cityCode" : "022",
    "mergerName" : "中国,天津,天津市,北辰区",
    "levelType" : "3",
    "lng" : "117.13217",
    "lat" : "39.22131",
    "ID" : "120113",
    "name" : "北辰区"
  },
  {
    "pinYin" : "Wuqing",
    "parentId" : "120100",
    "shortName" : "武清",
    "cityCode" : "022",
    "mergerName" : "中国,天津,天津市,武清区",
    "levelType" : "3",
    "lng" : "117.04443",
    "lat" : "39.38415",
    "ID" : "120114",
    "name" : "武清区"
  },
  {
    "pinYin" : "Baodi",
    "parentId" : "120100",
    "shortName" : "宝坻",
    "cityCode" : "022",
    "mergerName" : "中国,天津,天津市,宝坻区",
    "levelType" : "3",
    "lng" : "117.3103",
    "lat" : "39.71761",
    "ID" : "120115",
    "name" : "宝坻区"
  },
  {
    "pinYin" : "Binhaixinqu",
    "parentId" : "120100",
    "shortName" : "滨海新区",
    "cityCode" : "022",
    "mergerName" : "中国,天津,天津市,滨海新区",
    "levelType" : "3",
    "lng" : "117.70162",
    "lat" : "39.02668",
    "ID" : "120116",
    "name" : "滨海新区"
  },
  {
    "pinYin" : "Ninghe",
    "parentId" : "120100",
    "shortName" : "宁河",
    "cityCode" : "022",
    "mergerName" : "中国,天津,天津市,宁河县",
    "levelType" : "3",
    "lng" : "117.8255",
    "lat" : "39.33048",
    "ID" : "120221",
    "name" : "宁河县"
  },
  {
    "pinYin" : "Jinghai",
    "parentId" : "120100",
    "shortName" : "静海",
    "cityCode" : "022",
    "mergerName" : "中国,天津,天津市,静海县",
    "levelType" : "3",
    "lng" : "116.97436",
    "lat" : "38.94582",
    "ID" : "120223",
    "name" : "静海县"
  },
  {
    "pinYin" : "Jixian",
    "parentId" : "120100",
    "shortName" : "蓟县",
    "cityCode" : "022",
    "mergerName" : "中国,天津,天津市,蓟县",
    "levelType" : "3",
    "lng" : "117.40799",
    "lat" : "40.04567",
    "ID" : "120225",
    "name" : "蓟县"
  },
  {
    "pinYin" : "Hebei",
    "parentId" : "100000",
    "shortName" : "河北",
    "cityCode" : "",
    "mergerName" : "中国,河北省",
    "levelType" : "1",
    "lng" : "114.502461",
    "lat" : "38.045474",
    "ID" : "130000",
    "name" : "河北省"
  },
  {
    "pinYin" : "Shijiazhuang",
    "parentId" : "130000",
    "shortName" : "石家庄",
    "cityCode" : "0311",
    "mergerName" : "中国,河北省,石家庄市",
    "levelType" : "2",
    "lng" : "114.502461",
    "lat" : "38.045474",
    "ID" : "130100",
    "name" : "石家庄市"
  },
  {
    "pinYin" : "Chang'an",
    "parentId" : "130100",
    "shortName" : "长安",
    "cityCode" : "0311",
    "mergerName" : "中国,河北省,石家庄市,长安区",
    "levelType" : "3",
    "lng" : "114.53906",
    "lat" : "38.03665",
    "ID" : "130102",
    "name" : "长安区"
  },
  {
    "pinYin" : "Qiaoxi",
    "parentId" : "130100",
    "shortName" : "桥西",
    "cityCode" : "0311",
    "mergerName" : "中国,河北省,石家庄市,桥西区",
    "levelType" : "3",
    "lng" : "114.46977",
    "lat" : "38.03221",
    "ID" : "130104",
    "name" : "桥西区"
  },
  {
    "pinYin" : "Xinhua",
    "parentId" : "130100",
    "shortName" : "新华",
    "cityCode" : "0311",
    "mergerName" : "中国,河北省,石家庄市,新华区",
    "levelType" : "3",
    "lng" : "114.46326",
    "lat" : "38.05088",
    "ID" : "130105",
    "name" : "新华区"
  },
  {
    "pinYin" : "Jingxingkuangqu",
    "parentId" : "130100",
    "shortName" : "井陉矿区",
    "cityCode" : "0311",
    "mergerName" : "中国,河北省,石家庄市,井陉矿区",
    "levelType" : "3",
    "lng" : "114.06518",
    "lat" : "38.06705",
    "ID" : "130107",
    "name" : "井陉矿区"
  },
  {
    "pinYin" : "Yuhua",
    "parentId" : "130100",
    "shortName" : "裕华",
    "cityCode" : "0311",
    "mergerName" : "中国,河北省,石家庄市,裕华区",
    "levelType" : "3",
    "lng" : "114.53115",
    "lat" : "38.00604",
    "ID" : "130108",
    "name" : "裕华区"
  },
  {
    "pinYin" : "Gaocheng",
    "parentId" : "130100",
    "shortName" : "藁城",
    "cityCode" : "0311",
    "mergerName" : "中国,河北省,石家庄市,藁城区",
    "levelType" : "3",
    "lng" : "114.84671",
    "lat" : "38.02162",
    "ID" : "130109",
    "name" : "藁城区"
  },
  {
    "pinYin" : "Luquan",
    "parentId" : "130100",
    "shortName" : "鹿泉",
    "cityCode" : "0311",
    "mergerName" : "中国,河北省,石家庄市,鹿泉区",
    "levelType" : "3",
    "lng" : "114.31347",
    "lat" : "38.08782",
    "ID" : "130110",
    "name" : "鹿泉区"
  },
  {
    "pinYin" : "Luancheng",
    "parentId" : "130100",
    "shortName" : "栾城",
    "cityCode" : "0311",
    "mergerName" : "中国,河北省,石家庄市,栾城区",
    "levelType" : "3",
    "lng" : "114.64834",
    "lat" : "37.90022",
    "ID" : "130111",
    "name" : "栾城区"
  },
  {
    "pinYin" : "Jingxing",
    "parentId" : "130100",
    "shortName" : "井陉",
    "cityCode" : "0311",
    "mergerName" : "中国,河北省,石家庄市,井陉县",
    "levelType" : "3",
    "lng" : "114.14257",
    "lat" : "38.03688",
    "ID" : "130121",
    "name" : "井陉县"
  },
  {
    "pinYin" : "Zhengding",
    "parentId" : "130100",
    "shortName" : "正定",
    "cityCode" : "0311",
    "mergerName" : "中国,河北省,石家庄市,正定县",
    "levelType" : "3",
    "lng" : "114.57296",
    "lat" : "38.14445",
    "ID" : "130123",
    "name" : "正定县"
  },
  {
    "pinYin" : "Xingtang",
    "parentId" : "130100",
    "shortName" : "行唐",
    "cityCode" : "0311",
    "mergerName" : "中国,河北省,石家庄市,行唐县",
    "levelType" : "3",
    "lng" : "114.55316",
    "lat" : "38.43654",
    "ID" : "130125",
    "name" : "行唐县"
  },
  {
    "pinYin" : "Lingshou",
    "parentId" : "130100",
    "shortName" : "灵寿",
    "cityCode" : "0311",
    "mergerName" : "中国,河北省,石家庄市,灵寿县",
    "levelType" : "3",
    "lng" : "114.38259",
    "lat" : "38.30845",
    "ID" : "130126",
    "name" : "灵寿县"
  },
  {
    "pinYin" : "Gaoyi",
    "parentId" : "130100",
    "shortName" : "高邑",
    "cityCode" : "0311",
    "mergerName" : "中国,河北省,石家庄市,高邑县",
    "levelType" : "3",
    "lng" : "114.61142",
    "lat" : "37.61556",
    "ID" : "130127",
    "name" : "高邑县"
  },
  {
    "pinYin" : "Shenze",
    "parentId" : "130100",
    "shortName" : "深泽",
    "cityCode" : "0311",
    "mergerName" : "中国,河北省,石家庄市,深泽县",
    "levelType" : "3",
    "lng" : "115.20358",
    "lat" : "38.18353",
    "ID" : "130128",
    "name" : "深泽县"
  },
  {
    "pinYin" : "Zanhuang",
    "parentId" : "130100",
    "shortName" : "赞皇",
    "cityCode" : "0311",
    "mergerName" : "中国,河北省,石家庄市,赞皇县",
    "levelType" : "3",
    "lng" : "114.38775",
    "lat" : "37.66135",
    "ID" : "130129",
    "name" : "赞皇县"
  },
  {
    "pinYin" : "Wuji",
    "parentId" : "130100",
    "shortName" : "无极",
    "cityCode" : "0311",
    "mergerName" : "中国,河北省,石家庄市,无极县",
    "levelType" : "3",
    "lng" : "114.97509",
    "lat" : "38.17653",
    "ID" : "130130",
    "name" : "无极县"
  },
  {
    "pinYin" : "Pingshan",
    "parentId" : "130100",
    "shortName" : "平山",
    "cityCode" : "0311",
    "mergerName" : "中国,河北省,石家庄市,平山县",
    "levelType" : "3",
    "lng" : "114.186",
    "lat" : "38.25994",
    "ID" : "130131",
    "name" : "平山县"
  },
  {
    "pinYin" : "Yuanshi",
    "parentId" : "130100",
    "shortName" : "元氏",
    "cityCode" : "0311",
    "mergerName" : "中国,河北省,石家庄市,元氏县",
    "levelType" : "3",
    "lng" : "114.52539",
    "lat" : "37.76668",
    "ID" : "130132",
    "name" : "元氏县"
  },
  {
    "pinYin" : "Zhaoxian",
    "parentId" : "130100",
    "shortName" : "赵县",
    "cityCode" : "0311",
    "mergerName" : "中国,河北省,石家庄市,赵县",
    "levelType" : "3",
    "lng" : "114.77612",
    "lat" : "37.75628",
    "ID" : "130133",
    "name" : "赵县"
  },
  {
    "pinYin" : "Xinji",
    "parentId" : "130100",
    "shortName" : "辛集",
    "cityCode" : "0311",
    "mergerName" : "中国,河北省,石家庄市,辛集市",
    "levelType" : "3",
    "lng" : "115.20626",
    "lat" : "37.94079",
    "ID" : "130181",
    "name" : "辛集市"
  },
  {
    "pinYin" : "Jinzhou",
    "parentId" : "130100",
    "shortName" : "晋州",
    "cityCode" : "0311",
    "mergerName" : "中国,河北省,石家庄市,晋州市",
    "levelType" : "3",
    "lng" : "115.04348",
    "lat" : "38.03135",
    "ID" : "130183",
    "name" : "晋州市"
  },
  {
    "pinYin" : "Xinle",
    "parentId" : "130100",
    "shortName" : "新乐",
    "cityCode" : "0311",
    "mergerName" : "中国,河北省,石家庄市,新乐市",
    "levelType" : "3",
    "lng" : "114.68985",
    "lat" : "38.34417",
    "ID" : "130184",
    "name" : "新乐市"
  },
  {
    "pinYin" : "Tangshan",
    "parentId" : "130000",
    "shortName" : "唐山",
    "cityCode" : "0315",
    "mergerName" : "中国,河北省,唐山市",
    "levelType" : "2",
    "lng" : "118.175393",
    "lat" : "39.635113",
    "ID" : "130200",
    "name" : "唐山市"
  },
  {
    "pinYin" : "Lunan",
    "parentId" : "130200",
    "shortName" : "路南",
    "cityCode" : "0315",
    "mergerName" : "中国,河北省,唐山市,路南区",
    "levelType" : "3",
    "lng" : "118.15431",
    "lat" : "39.62505",
    "ID" : "130202",
    "name" : "路南区"
  },
  {
    "pinYin" : "Lubei",
    "parentId" : "130200",
    "shortName" : "路北",
    "cityCode" : "0315",
    "mergerName" : "中国,河北省,唐山市,路北区",
    "levelType" : "3",
    "lng" : "118.20079",
    "lat" : "39.62436",
    "ID" : "130203",
    "name" : "路北区"
  },
  {
    "pinYin" : "Guye",
    "parentId" : "130200",
    "shortName" : "古冶",
    "cityCode" : "0315",
    "mergerName" : "中国,河北省,唐山市,古冶区",
    "levelType" : "3",
    "lng" : "118.45803",
    "lat" : "39.71993",
    "ID" : "130204",
    "name" : "古冶区"
  },
  {
    "pinYin" : "Kaiping",
    "parentId" : "130200",
    "shortName" : "开平",
    "cityCode" : "0315",
    "mergerName" : "中国,河北省,唐山市,开平区",
    "levelType" : "3",
    "lng" : "118.26171",
    "lat" : "39.67128",
    "ID" : "130205",
    "name" : "开平区"
  },
  {
    "pinYin" : "Fengnan",
    "parentId" : "130200",
    "shortName" : "丰南",
    "cityCode" : "0315",
    "mergerName" : "中国,河北省,唐山市,丰南区",
    "levelType" : "3",
    "lng" : "118.11282",
    "lat" : "39.56483",
    "ID" : "130207",
    "name" : "丰南区"
  },
  {
    "pinYin" : "Fengrun",
    "parentId" : "130200",
    "shortName" : "丰润",
    "cityCode" : "0315",
    "mergerName" : "中国,河北省,唐山市,丰润区",
    "levelType" : "3",
    "lng" : "118.12976",
    "lat" : "39.8244",
    "ID" : "130208",
    "name" : "丰润区"
  },
  {
    "pinYin" : "Caofeidian",
    "parentId" : "130200",
    "shortName" : "曹妃甸",
    "cityCode" : "0315",
    "mergerName" : "中国,河北省,唐山市,曹妃甸区",
    "levelType" : "3",
    "lng" : "118.460379",
    "lat" : "39.273070",
    "ID" : "130209",
    "name" : "曹妃甸区"
  },
  {
    "pinYin" : "Luanxian",
    "parentId" : "130200",
    "shortName" : "滦县",
    "cityCode" : "0315",
    "mergerName" : "中国,河北省,唐山市,滦县",
    "levelType" : "3",
    "lng" : "118.70346",
    "lat" : "39.74056",
    "ID" : "130223",
    "name" : "滦县"
  },
  {
    "pinYin" : "Luannan",
    "parentId" : "130200",
    "shortName" : "滦南",
    "cityCode" : "0315",
    "mergerName" : "中国,河北省,唐山市,滦南县",
    "levelType" : "3",
    "lng" : "118.6741",
    "lat" : "39.5039",
    "ID" : "130224",
    "name" : "滦南县"
  },
  {
    "pinYin" : "Laoting",
    "parentId" : "130200",
    "shortName" : "乐亭",
    "cityCode" : "0315",
    "mergerName" : "中国,河北省,唐山市,乐亭县",
    "levelType" : "3",
    "lng" : "118.9125",
    "lat" : "39.42561",
    "ID" : "130225",
    "name" : "乐亭县"
  },
  {
    "pinYin" : "Qianxi",
    "parentId" : "130200",
    "shortName" : "迁西",
    "cityCode" : "0315",
    "mergerName" : "中国,河北省,唐山市,迁西县",
    "levelType" : "3",
    "lng" : "118.31616",
    "lat" : "40.14587",
    "ID" : "130227",
    "name" : "迁西县"
  },
  {
    "pinYin" : "Yutian",
    "parentId" : "130200",
    "shortName" : "玉田",
    "cityCode" : "0315",
    "mergerName" : "中国,河北省,唐山市,玉田县",
    "levelType" : "3",
    "lng" : "117.7388",
    "lat" : "39.90049",
    "ID" : "130229",
    "name" : "玉田县"
  },
  {
    "pinYin" : "Zunhua",
    "parentId" : "130200",
    "shortName" : "遵化",
    "cityCode" : "0315",
    "mergerName" : "中国,河北省,唐山市,遵化市",
    "levelType" : "3",
    "lng" : "117.96444",
    "lat" : "40.18741",
    "ID" : "130281",
    "name" : "遵化市"
  },
  {
    "pinYin" : "Qian'an",
    "parentId" : "130200",
    "shortName" : "迁安",
    "cityCode" : "0315",
    "mergerName" : "中国,河北省,唐山市,迁安市",
    "levelType" : "3",
    "lng" : "118.70068",
    "lat" : "39.99833",
    "ID" : "130283",
    "name" : "迁安市"
  },
  {
    "pinYin" : "Qinhuangdao",
    "parentId" : "130000",
    "shortName" : "秦皇岛",
    "cityCode" : "0335",
    "mergerName" : "中国,河北省,秦皇岛市",
    "levelType" : "2",
    "lng" : "119.586579",
    "lat" : "39.942531",
    "ID" : "130300",
    "name" : "秦皇岛市"
  },
  {
    "pinYin" : "Haigang",
    "parentId" : "130300",
    "shortName" : "海港",
    "cityCode" : "0335",
    "mergerName" : "中国,河北省,秦皇岛市,海港区",
    "levelType" : "3",
    "lng" : "119.61046",
    "lat" : "39.9345",
    "ID" : "130302",
    "name" : "海港区"
  },
  {
    "pinYin" : "Shanhaiguan",
    "parentId" : "130300",
    "shortName" : "山海关",
    "cityCode" : "0335",
    "mergerName" : "中国,河北省,秦皇岛市,山海关区",
    "levelType" : "3",
    "lng" : "119.77563",
    "lat" : "39.97869",
    "ID" : "130303",
    "name" : "山海关区"
  },
  {
    "pinYin" : "Beidaihe",
    "parentId" : "130300",
    "shortName" : "北戴河",
    "cityCode" : "0335",
    "mergerName" : "中国,河北省,秦皇岛市,北戴河区",
    "levelType" : "3",
    "lng" : "119.48388",
    "lat" : "39.83408",
    "ID" : "130304",
    "name" : "北戴河区"
  },
  {
    "pinYin" : "Qinglong",
    "parentId" : "130300",
    "shortName" : "青龙",
    "cityCode" : "0335",
    "mergerName" : "中国,河北省,秦皇岛市,青龙满族自治县",
    "levelType" : "3",
    "lng" : "118.95242",
    "lat" : "40.40743",
    "ID" : "130321",
    "name" : "青龙满族自治县"
  },
  {
    "pinYin" : "Changli",
    "parentId" : "130300",
    "shortName" : "昌黎",
    "cityCode" : "0335",
    "mergerName" : "中国,河北省,秦皇岛市,昌黎县",
    "levelType" : "3",
    "lng" : "119.16595",
    "lat" : "39.70884",
    "ID" : "130322",
    "name" : "昌黎县"
  },
  {
    "pinYin" : "Funing",
    "parentId" : "130300",
    "shortName" : "抚宁",
    "cityCode" : "0335",
    "mergerName" : "中国,河北省,秦皇岛市,抚宁县",
    "levelType" : "3",
    "lng" : "119.24487",
    "lat" : "39.87538",
    "ID" : "130323",
    "name" : "抚宁县"
  },
  {
    "pinYin" : "Lulong",
    "parentId" : "130300",
    "shortName" : "卢龙",
    "cityCode" : "0335",
    "mergerName" : "中国,河北省,秦皇岛市,卢龙县",
    "levelType" : "3",
    "lng" : "118.89288",
    "lat" : "39.89176",
    "ID" : "130324",
    "name" : "卢龙县"
  },
  {
    "pinYin" : "Handan",
    "parentId" : "130000",
    "shortName" : "邯郸",
    "cityCode" : "0310",
    "mergerName" : "中国,河北省,邯郸市",
    "levelType" : "2",
    "lng" : "114.490686",
    "lat" : "36.612273",
    "ID" : "130400",
    "name" : "邯郸市"
  },
  {
    "pinYin" : "Hanshan",
    "parentId" : "130400",
    "shortName" : "邯山",
    "cityCode" : "0310",
    "mergerName" : "中国,河北省,邯郸市,邯山区",
    "levelType" : "3",
    "lng" : "114.48375",
    "lat" : "36.60006",
    "ID" : "130402",
    "name" : "邯山区"
  },
  {
    "pinYin" : "Congtai",
    "parentId" : "130400",
    "shortName" : "丛台",
    "cityCode" : "0310",
    "mergerName" : "中国,河北省,邯郸市,丛台区",
    "levelType" : "3",
    "lng" : "114.49343",
    "lat" : "36.61847",
    "ID" : "130403",
    "name" : "丛台区"
  },
  {
    "pinYin" : "Fuxing",
    "parentId" : "130400",
    "shortName" : "复兴",
    "cityCode" : "0310",
    "mergerName" : "中国,河北省,邯郸市,复兴区",
    "levelType" : "3",
    "lng" : "114.45928",
    "lat" : "36.61134",
    "ID" : "130404",
    "name" : "复兴区"
  },
  {
    "pinYin" : "Fengfengkuangqu",
    "parentId" : "130400",
    "shortName" : "峰峰矿区",
    "cityCode" : "0310",
    "mergerName" : "中国,河北省,邯郸市,峰峰矿区",
    "levelType" : "3",
    "lng" : "114.21148",
    "lat" : "36.41937",
    "ID" : "130406",
    "name" : "峰峰矿区"
  },
  {
    "pinYin" : "Handan",
    "parentId" : "130400",
    "shortName" : "邯郸",
    "cityCode" : "0310",
    "mergerName" : "中国,河北省,邯郸市,邯郸县",
    "levelType" : "3",
    "lng" : "114.53103",
    "lat" : "36.59385",
    "ID" : "130421",
    "name" : "邯郸县"
  },
  {
    "pinYin" : "Linzhang",
    "parentId" : "130400",
    "shortName" : "临漳",
    "cityCode" : "0310",
    "mergerName" : "中国,河北省,邯郸市,临漳县",
    "levelType" : "3",
    "lng" : "114.6195",
    "lat" : "36.33461",
    "ID" : "130423",
    "name" : "临漳县"
  },
  {
    "pinYin" : "Cheng'an",
    "parentId" : "130400",
    "shortName" : "成安",
    "cityCode" : "0310",
    "mergerName" : "中国,河北省,邯郸市,成安县",
    "levelType" : "3",
    "lng" : "114.66995",
    "lat" : "36.44411",
    "ID" : "130424",
    "name" : "成安县"
  },
  {
    "pinYin" : "Daming",
    "parentId" : "130400",
    "shortName" : "大名",
    "cityCode" : "0310",
    "mergerName" : "中国,河北省,邯郸市,大名县",
    "levelType" : "3",
    "lng" : "115.15362",
    "lat" : "36.27994",
    "ID" : "130425",
    "name" : "大名县"
  },
  {
    "pinYin" : "Shexian",
    "parentId" : "130400",
    "shortName" : "涉县",
    "cityCode" : "0310",
    "mergerName" : "中国,河北省,邯郸市,涉县",
    "levelType" : "3",
    "lng" : "113.69183",
    "lat" : "36.58072",
    "ID" : "130426",
    "name" : "涉县"
  },
  {
    "pinYin" : "Cixian",
    "parentId" : "130400",
    "shortName" : "磁县",
    "cityCode" : "0310",
    "mergerName" : "中国,河北省,邯郸市,磁县",
    "levelType" : "3",
    "lng" : "114.37387",
    "lat" : "36.37392",
    "ID" : "130427",
    "name" : "磁县"
  },
  {
    "pinYin" : "Feixiang",
    "parentId" : "130400",
    "shortName" : "肥乡",
    "cityCode" : "0310",
    "mergerName" : "中国,河北省,邯郸市,肥乡县",
    "levelType" : "3",
    "lng" : "114.79998",
    "lat" : "36.54807",
    "ID" : "130428",
    "name" : "肥乡县"
  },
  {
    "pinYin" : "Yongnian",
    "parentId" : "130400",
    "shortName" : "永年",
    "cityCode" : "0310",
    "mergerName" : "中国,河北省,邯郸市,永年县",
    "levelType" : "3",
    "lng" : "114.48925",
    "lat" : "36.78356",
    "ID" : "130429",
    "name" : "永年县"
  },
  {
    "pinYin" : "Qiuxian",
    "parentId" : "130400",
    "shortName" : "邱县",
    "cityCode" : "0310",
    "mergerName" : "中国,河北省,邯郸市,邱县",
    "levelType" : "3",
    "lng" : "115.17407",
    "lat" : "36.82082",
    "ID" : "130430",
    "name" : "邱县"
  },
  {
    "pinYin" : "Jize",
    "parentId" : "130400",
    "shortName" : "鸡泽",
    "cityCode" : "0310",
    "mergerName" : "中国,河北省,邯郸市,鸡泽县",
    "levelType" : "3",
    "lng" : "114.8742",
    "lat" : "36.92374",
    "ID" : "130431",
    "name" : "鸡泽县"
  },
  {
    "pinYin" : "Guangping",
    "parentId" : "130400",
    "shortName" : "广平",
    "cityCode" : "0310",
    "mergerName" : "中国,河北省,邯郸市,广平县",
    "levelType" : "3",
    "lng" : "114.94653",
    "lat" : "36.48046",
    "ID" : "130432",
    "name" : "广平县"
  },
  {
    "pinYin" : "Guantao",
    "parentId" : "130400",
    "shortName" : "馆陶",
    "cityCode" : "0310",
    "mergerName" : "中国,河北省,邯郸市,馆陶县",
    "levelType" : "3",
    "lng" : "115.29913",
    "lat" : "36.53719",
    "ID" : "130433",
    "name" : "馆陶县"
  },
  {
    "pinYin" : "Weixian",
    "parentId" : "130400",
    "shortName" : "魏县",
    "cityCode" : "0310",
    "mergerName" : "中国,河北省,邯郸市,魏县",
    "levelType" : "3",
    "lng" : "114.93518",
    "lat" : "36.36171",
    "ID" : "130434",
    "name" : "魏县"
  },
  {
    "pinYin" : "Quzhou",
    "parentId" : "130400",
    "shortName" : "曲周",
    "cityCode" : "0310",
    "mergerName" : "中国,河北省,邯郸市,曲周县",
    "levelType" : "3",
    "lng" : "114.95196",
    "lat" : "36.77671",
    "ID" : "130435",
    "name" : "曲周县"
  },
  {
    "pinYin" : "Wu'an",
    "parentId" : "130400",
    "shortName" : "武安",
    "cityCode" : "0310",
    "mergerName" : "中国,河北省,邯郸市,武安市",
    "levelType" : "3",
    "lng" : "114.20153",
    "lat" : "36.69281",
    "ID" : "130481",
    "name" : "武安市"
  },
  {
    "pinYin" : "Xingtai",
    "parentId" : "130000",
    "shortName" : "邢台",
    "cityCode" : "0319",
    "mergerName" : "中国,河北省,邢台市",
    "levelType" : "2",
    "lng" : "114.508851",
    "lat" : "37.0682",
    "ID" : "130500",
    "name" : "邢台市"
  },
  {
    "pinYin" : "Qiaodong",
    "parentId" : "130500",
    "shortName" : "桥东",
    "cityCode" : "0319",
    "mergerName" : "中国,河北省,邢台市,桥东区",
    "levelType" : "3",
    "lng" : "114.50725",
    "lat" : "37.06801",
    "ID" : "130502",
    "name" : "桥东区"
  },
  {
    "pinYin" : "Qiaoxi",
    "parentId" : "130500",
    "shortName" : "桥西",
    "cityCode" : "0319",
    "mergerName" : "中国,河北省,邢台市,桥西区",
    "levelType" : "3",
    "lng" : "114.46803",
    "lat" : "37.05984",
    "ID" : "130503",
    "name" : "桥西区"
  },
  {
    "pinYin" : "Xingtai",
    "parentId" : "130500",
    "shortName" : "邢台",
    "cityCode" : "0319",
    "mergerName" : "中国,河北省,邢台市,邢台县",
    "levelType" : "3",
    "lng" : "114.56575",
    "lat" : "37.0456",
    "ID" : "130521",
    "name" : "邢台县"
  },
  {
    "pinYin" : "Lincheng",
    "parentId" : "130500",
    "shortName" : "临城",
    "cityCode" : "0319",
    "mergerName" : "中国,河北省,邢台市,临城县",
    "levelType" : "3",
    "lng" : "114.50387",
    "lat" : "37.43977",
    "ID" : "130522",
    "name" : "临城县"
  },
  {
    "pinYin" : "Neiqiu",
    "parentId" : "130500",
    "shortName" : "内丘",
    "cityCode" : "0319",
    "mergerName" : "中国,河北省,邢台市,内丘县",
    "levelType" : "3",
    "lng" : "114.51212",
    "lat" : "37.28671",
    "ID" : "130523",
    "name" : "内丘县"
  },
  {
    "pinYin" : "Baixiang",
    "parentId" : "130500",
    "shortName" : "柏乡",
    "cityCode" : "0319",
    "mergerName" : "中国,河北省,邢台市,柏乡县",
    "levelType" : "3",
    "lng" : "114.69332",
    "lat" : "37.48242",
    "ID" : "130524",
    "name" : "柏乡县"
  },
  {
    "pinYin" : "Longyao",
    "parentId" : "130500",
    "shortName" : "隆尧",
    "cityCode" : "0319",
    "mergerName" : "中国,河北省,邢台市,隆尧县",
    "levelType" : "3",
    "lng" : "114.77615",
    "lat" : "37.35351",
    "ID" : "130525",
    "name" : "隆尧县"
  },
  {
    "pinYin" : "Renxian",
    "parentId" : "130500",
    "shortName" : "任县",
    "cityCode" : "0319",
    "mergerName" : "中国,河北省,邢台市,任县",
    "levelType" : "3",
    "lng" : "114.6842",
    "lat" : "37.12575",
    "ID" : "130526",
    "name" : "任县"
  },
  {
    "pinYin" : "Nanhe",
    "parentId" : "130500",
    "shortName" : "南和",
    "cityCode" : "0319",
    "mergerName" : "中国,河北省,邢台市,南和县",
    "levelType" : "3",
    "lng" : "114.68371",
    "lat" : "37.00488",
    "ID" : "130527",
    "name" : "南和县"
  },
  {
    "pinYin" : "Ningjin",
    "parentId" : "130500",
    "shortName" : "宁晋",
    "cityCode" : "0319",
    "mergerName" : "中国,河北省,邢台市,宁晋县",
    "levelType" : "3",
    "lng" : "114.92117",
    "lat" : "37.61696",
    "ID" : "130528",
    "name" : "宁晋县"
  },
  {
    "pinYin" : "Julu",
    "parentId" : "130500",
    "shortName" : "巨鹿",
    "cityCode" : "0319",
    "mergerName" : "中国,河北省,邢台市,巨鹿县",
    "levelType" : "3",
    "lng" : "115.03524",
    "lat" : "37.21801",
    "ID" : "130529",
    "name" : "巨鹿县"
  },
  {
    "pinYin" : "Xinhe",
    "parentId" : "130500",
    "shortName" : "新河",
    "cityCode" : "0319",
    "mergerName" : "中国,河北省,邢台市,新河县",
    "levelType" : "3",
    "lng" : "115.24987",
    "lat" : "37.52718",
    "ID" : "130530",
    "name" : "新河县"
  },
  {
    "pinYin" : "Guangzong",
    "parentId" : "130500",
    "shortName" : "广宗",
    "cityCode" : "0319",
    "mergerName" : "中国,河北省,邢台市,广宗县",
    "levelType" : "3",
    "lng" : "115.14254",
    "lat" : "37.0746",
    "ID" : "130531",
    "name" : "广宗县"
  },
  {
    "pinYin" : "Pingxiang",
    "parentId" : "130500",
    "shortName" : "平乡",
    "cityCode" : "0319",
    "mergerName" : "中国,河北省,邢台市,平乡县",
    "levelType" : "3",
    "lng" : "115.03002",
    "lat" : "37.06317",
    "ID" : "130532",
    "name" : "平乡县"
  },
  {
    "pinYin" : "Weixian",
    "parentId" : "130500",
    "shortName" : "威县",
    "cityCode" : "0319",
    "mergerName" : "中国,河北省,邢台市,威县",
    "levelType" : "3",
    "lng" : "115.2637",
    "lat" : "36.9768",
    "ID" : "130533",
    "name" : "威县"
  },
  {
    "pinYin" : "Qinghe",
    "parentId" : "130500",
    "shortName" : "清河",
    "cityCode" : "0319",
    "mergerName" : "中国,河北省,邢台市,清河县",
    "levelType" : "3",
    "lng" : "115.66479",
    "lat" : "37.07122",
    "ID" : "130534",
    "name" : "清河县"
  },
  {
    "pinYin" : "Linxi",
    "parentId" : "130500",
    "shortName" : "临西",
    "cityCode" : "0319",
    "mergerName" : "中国,河北省,邢台市,临西县",
    "levelType" : "3",
    "lng" : "115.50097",
    "lat" : "36.87078",
    "ID" : "130535",
    "name" : "临西县"
  },
  {
    "pinYin" : "Nangong",
    "parentId" : "130500",
    "shortName" : "南宫",
    "cityCode" : "0319",
    "mergerName" : "中国,河北省,邢台市,南宫市",
    "levelType" : "3",
    "lng" : "115.39068",
    "lat" : "37.35799",
    "ID" : "130581",
    "name" : "南宫市"
  },
  {
    "pinYin" : "Shahe",
    "parentId" : "130500",
    "shortName" : "沙河",
    "cityCode" : "0319",
    "mergerName" : "中国,河北省,邢台市,沙河市",
    "levelType" : "3",
    "lng" : "114.4981",
    "lat" : "36.8577",
    "ID" : "130582",
    "name" : "沙河市"
  },
  {
    "pinYin" : "Baoding",
    "parentId" : "130000",
    "shortName" : "保定",
    "cityCode" : "0312",
    "mergerName" : "中国,河北省,保定市",
    "levelType" : "2",
    "lng" : "115.482331",
    "lat" : "38.867657",
    "ID" : "130600",
    "name" : "保定市"
  },
  {
    "pinYin" : "Xinshi",
    "parentId" : "130600",
    "shortName" : "新市",
    "cityCode" : "0312",
    "mergerName" : "中国,河北省,保定市,新市区",
    "levelType" : "3",
    "lng" : "115.4587",
    "lat" : "38.87751",
    "ID" : "130602",
    "name" : "新市区"
  },
  {
    "pinYin" : "Beishi",
    "parentId" : "130600",
    "shortName" : "北市",
    "cityCode" : "0312",
    "mergerName" : "中国,河北省,保定市,北市区",
    "levelType" : "3",
    "lng" : "115.49715",
    "lat" : "38.88322",
    "ID" : "130603",
    "name" : "北市区"
  },
  {
    "pinYin" : "Nanshi",
    "parentId" : "130600",
    "shortName" : "南市",
    "cityCode" : "0312",
    "mergerName" : "中国,河北省,保定市,南市区",
    "levelType" : "3",
    "lng" : "115.52859",
    "lat" : "38.85455",
    "ID" : "130604",
    "name" : "南市区"
  },
  {
    "pinYin" : "Mancheng",
    "parentId" : "130600",
    "shortName" : "满城",
    "cityCode" : "0312",
    "mergerName" : "中国,河北省,保定市,满城县",
    "levelType" : "3",
    "lng" : "115.32296",
    "lat" : "38.94972",
    "ID" : "130621",
    "name" : "满城县"
  },
  {
    "pinYin" : "Qingyuan",
    "parentId" : "130600",
    "shortName" : "清苑",
    "cityCode" : "0312",
    "mergerName" : "中国,河北省,保定市,清苑县",
    "levelType" : "3",
    "lng" : "115.49267",
    "lat" : "38.76709",
    "ID" : "130622",
    "name" : "清苑县"
  },
  {
    "pinYin" : "Laishui",
    "parentId" : "130600",
    "shortName" : "涞水",
    "cityCode" : "0312",
    "mergerName" : "中国,河北省,保定市,涞水县",
    "levelType" : "3",
    "lng" : "115.71517",
    "lat" : "39.39404",
    "ID" : "130623",
    "name" : "涞水县"
  },
  {
    "pinYin" : "Fuping",
    "parentId" : "130600",
    "shortName" : "阜平",
    "cityCode" : "0312",
    "mergerName" : "中国,河北省,保定市,阜平县",
    "levelType" : "3",
    "lng" : "114.19683",
    "lat" : "38.84763",
    "ID" : "130624",
    "name" : "阜平县"
  },
  {
    "pinYin" : "Xushui",
    "parentId" : "130600",
    "shortName" : "徐水",
    "cityCode" : "0312",
    "mergerName" : "中国,河北省,保定市,徐水县",
    "levelType" : "3",
    "lng" : "115.65829",
    "lat" : "39.02099",
    "ID" : "130625",
    "name" : "徐水县"
  },
  {
    "pinYin" : "Dingxing",
    "parentId" : "130600",
    "shortName" : "定兴",
    "cityCode" : "0312",
    "mergerName" : "中国,河北省,保定市,定兴县",
    "levelType" : "3",
    "lng" : "115.80786",
    "lat" : "39.26312",
    "ID" : "130626",
    "name" : "定兴县"
  },
  {
    "pinYin" : "Tangxian",
    "parentId" : "130600",
    "shortName" : "唐县",
    "cityCode" : "0312",
    "mergerName" : "中国,河北省,保定市,唐县",
    "levelType" : "3",
    "lng" : "114.98516",
    "lat" : "38.74513",
    "ID" : "130627",
    "name" : "唐县"
  },
  {
    "pinYin" : "Gaoyang",
    "parentId" : "130600",
    "shortName" : "高阳",
    "cityCode" : "0312",
    "mergerName" : "中国,河北省,保定市,高阳县",
    "levelType" : "3",
    "lng" : "115.7788",
    "lat" : "38.70003",
    "ID" : "130628",
    "name" : "高阳县"
  },
  {
    "pinYin" : "Rongcheng",
    "parentId" : "130600",
    "shortName" : "容城",
    "cityCode" : "0312",
    "mergerName" : "中国,河北省,保定市,容城县",
    "levelType" : "3",
    "lng" : "115.87158",
    "lat" : "39.0535",
    "ID" : "130629",
    "name" : "容城县"
  },
  {
    "pinYin" : "Laiyuan",
    "parentId" : "130600",
    "shortName" : "涞源",
    "cityCode" : "0312",
    "mergerName" : "中国,河北省,保定市,涞源县",
    "levelType" : "3",
    "lng" : "114.69128",
    "lat" : "39.35388",
    "ID" : "130630",
    "name" : "涞源县"
  },
  {
    "pinYin" : "Wangdu",
    "parentId" : "130600",
    "shortName" : "望都",
    "cityCode" : "0312",
    "mergerName" : "中国,河北省,保定市,望都县",
    "levelType" : "3",
    "lng" : "115.1567",
    "lat" : "38.70996",
    "ID" : "130631",
    "name" : "望都县"
  },
  {
    "pinYin" : "Anxin",
    "parentId" : "130600",
    "shortName" : "安新",
    "cityCode" : "0312",
    "mergerName" : "中国,河北省,保定市,安新县",
    "levelType" : "3",
    "lng" : "115.93557",
    "lat" : "38.93532",
    "ID" : "130632",
    "name" : "安新县"
  },
  {
    "pinYin" : "Yixian",
    "parentId" : "130600",
    "shortName" : "易县",
    "cityCode" : "0312",
    "mergerName" : "中国,河北省,保定市,易县",
    "levelType" : "3",
    "lng" : "115.4981",
    "lat" : "39.34885",
    "ID" : "130633",
    "name" : "易县"
  },
  {
    "pinYin" : "Quyang",
    "parentId" : "130600",
    "shortName" : "曲阳",
    "cityCode" : "0312",
    "mergerName" : "中国,河北省,保定市,曲阳县",
    "levelType" : "3",
    "lng" : "114.70123",
    "lat" : "38.62154",
    "ID" : "130634",
    "name" : "曲阳县"
  },
  {
    "pinYin" : "Lixian",
    "parentId" : "130600",
    "shortName" : "蠡县",
    "cityCode" : "0312",
    "mergerName" : "中国,河北省,保定市,蠡县",
    "levelType" : "3",
    "lng" : "115.57717",
    "lat" : "38.48974",
    "ID" : "130635",
    "name" : "蠡县"
  },
  {
    "pinYin" : "Shunping",
    "parentId" : "130600",
    "shortName" : "顺平",
    "cityCode" : "0312",
    "mergerName" : "中国,河北省,保定市,顺平县",
    "levelType" : "3",
    "lng" : "115.1347",
    "lat" : "38.83854",
    "ID" : "130636",
    "name" : "顺平县"
  },
  {
    "pinYin" : "Boye",
    "parentId" : "130600",
    "shortName" : "博野",
    "cityCode" : "0312",
    "mergerName" : "中国,河北省,保定市,博野县",
    "levelType" : "3",
    "lng" : "115.47033",
    "lat" : "38.4564",
    "ID" : "130637",
    "name" : "博野县"
  },
  {
    "pinYin" : "Xiongxian",
    "parentId" : "130600",
    "shortName" : "雄县",
    "cityCode" : "0312",
    "mergerName" : "中国,河北省,保定市,雄县",
    "levelType" : "3",
    "lng" : "116.10873",
    "lat" : "38.99442",
    "ID" : "130638",
    "name" : "雄县"
  },
  {
    "pinYin" : "Zhuozhou",
    "parentId" : "130600",
    "shortName" : "涿州",
    "cityCode" : "0312",
    "mergerName" : "中国,河北省,保定市,涿州市",
    "levelType" : "3",
    "lng" : "115.98062",
    "lat" : "39.48622",
    "ID" : "130681",
    "name" : "涿州市"
  },
  {
    "pinYin" : "Dingzhou",
    "parentId" : "130600",
    "shortName" : "定州",
    "cityCode" : "0312",
    "mergerName" : "中国,河北省,保定市,定州市",
    "levelType" : "3",
    "lng" : "114.9902",
    "lat" : "38.51623",
    "ID" : "130682",
    "name" : "定州市"
  },
  {
    "pinYin" : "Anguo",
    "parentId" : "130600",
    "shortName" : "安国",
    "cityCode" : "0312",
    "mergerName" : "中国,河北省,保定市,安国市",
    "levelType" : "3",
    "lng" : "115.32321",
    "lat" : "38.41391",
    "ID" : "130683",
    "name" : "安国市"
  },
  {
    "pinYin" : "Gaobeidian",
    "parentId" : "130600",
    "shortName" : "高碑店",
    "cityCode" : "0312",
    "mergerName" : "中国,河北省,保定市,高碑店市",
    "levelType" : "3",
    "lng" : "115.87368",
    "lat" : "39.32655",
    "ID" : "130684",
    "name" : "高碑店市"
  },
  {
    "pinYin" : "Zhangjiakou",
    "parentId" : "130000",
    "shortName" : "张家口",
    "cityCode" : "0313",
    "mergerName" : "中国,河北省,张家口市",
    "levelType" : "2",
    "lng" : "114.884091",
    "lat" : "40.811901",
    "ID" : "130700",
    "name" : "张家口市"
  },
  {
    "pinYin" : "Qiaodong",
    "parentId" : "130700",
    "shortName" : "桥东",
    "cityCode" : "0313",
    "mergerName" : "中国,河北省,张家口市,桥东区",
    "levelType" : "3",
    "lng" : "114.8943",
    "lat" : "40.78844",
    "ID" : "130702",
    "name" : "桥东区"
  },
  {
    "pinYin" : "Qiaoxi",
    "parentId" : "130700",
    "shortName" : "桥西",
    "cityCode" : "0313",
    "mergerName" : "中国,河北省,张家口市,桥西区",
    "levelType" : "3",
    "lng" : "114.86962",
    "lat" : "40.81945",
    "ID" : "130703",
    "name" : "桥西区"
  },
  {
    "pinYin" : "Xuanhua",
    "parentId" : "130700",
    "shortName" : "宣化",
    "cityCode" : "0313",
    "mergerName" : "中国,河北省,张家口市,宣化区",
    "levelType" : "3",
    "lng" : "115.06543",
    "lat" : "40.60957",
    "ID" : "130705",
    "name" : "宣化区"
  },
  {
    "pinYin" : "Xiahuayuan",
    "parentId" : "130700",
    "shortName" : "下花园",
    "cityCode" : "0313",
    "mergerName" : "中国,河北省,张家口市,下花园区",
    "levelType" : "3",
    "lng" : "115.28744",
    "lat" : "40.50236",
    "ID" : "130706",
    "name" : "下花园区"
  },
  {
    "pinYin" : "Xuanhua",
    "parentId" : "130700",
    "shortName" : "宣化",
    "cityCode" : "0313",
    "mergerName" : "中国,河北省,张家口市,宣化县",
    "levelType" : "3",
    "lng" : "115.15497",
    "lat" : "40.56618",
    "ID" : "130721",
    "name" : "宣化县"
  },
  {
    "pinYin" : "Zhangbei",
    "parentId" : "130700",
    "shortName" : "张北",
    "cityCode" : "0313",
    "mergerName" : "中国,河北省,张家口市,张北县",
    "levelType" : "3",
    "lng" : "114.71432",
    "lat" : "41.15977",
    "ID" : "130722",
    "name" : "张北县"
  },
  {
    "pinYin" : "Kangbao",
    "parentId" : "130700",
    "shortName" : "康保",
    "cityCode" : "0313",
    "mergerName" : "中国,河北省,张家口市,康保县",
    "levelType" : "3",
    "lng" : "114.60031",
    "lat" : "41.85225",
    "ID" : "130723",
    "name" : "康保县"
  },
  {
    "pinYin" : "Guyuan",
    "parentId" : "130700",
    "shortName" : "沽源",
    "cityCode" : "0313",
    "mergerName" : "中国,河北省,张家口市,沽源县",
    "levelType" : "3",
    "lng" : "115.68859",
    "lat" : "41.66959",
    "ID" : "130724",
    "name" : "沽源县"
  },
  {
    "pinYin" : "Shangyi",
    "parentId" : "130700",
    "shortName" : "尚义",
    "cityCode" : "0313",
    "mergerName" : "中国,河北省,张家口市,尚义县",
    "levelType" : "3",
    "lng" : "113.97134",
    "lat" : "41.07782",
    "ID" : "130725",
    "name" : "尚义县"
  },
  {
    "pinYin" : "Yuxian",
    "parentId" : "130700",
    "shortName" : "蔚县",
    "cityCode" : "0313",
    "mergerName" : "中国,河北省,张家口市,蔚县",
    "levelType" : "3",
    "lng" : "114.58892",
    "lat" : "39.84067",
    "ID" : "130726",
    "name" : "蔚县"
  },
  {
    "pinYin" : "Yangyuan",
    "parentId" : "130700",
    "shortName" : "阳原",
    "cityCode" : "0313",
    "mergerName" : "中国,河北省,张家口市,阳原县",
    "levelType" : "3",
    "lng" : "114.15051",
    "lat" : "40.10361",
    "ID" : "130727",
    "name" : "阳原县"
  },
  {
    "pinYin" : "Huai'an",
    "parentId" : "130700",
    "shortName" : "怀安",
    "cityCode" : "0313",
    "mergerName" : "中国,河北省,张家口市,怀安县",
    "levelType" : "3",
    "lng" : "114.38559",
    "lat" : "40.67425",
    "ID" : "130728",
    "name" : "怀安县"
  },
  {
    "pinYin" : "Wanquan",
    "parentId" : "130700",
    "shortName" : "万全",
    "cityCode" : "0313",
    "mergerName" : "中国,河北省,张家口市,万全县",
    "levelType" : "3",
    "lng" : "114.7405",
    "lat" : "40.76694",
    "ID" : "130729",
    "name" : "万全县"
  },
  {
    "pinYin" : "Huailai",
    "parentId" : "130700",
    "shortName" : "怀来",
    "cityCode" : "0313",
    "mergerName" : "中国,河北省,张家口市,怀来县",
    "levelType" : "3",
    "lng" : "115.51773",
    "lat" : "40.41536",
    "ID" : "130730",
    "name" : "怀来县"
  },
  {
    "pinYin" : "Zhuolu",
    "parentId" : "130700",
    "shortName" : "涿鹿",
    "cityCode" : "0313",
    "mergerName" : "中国,河北省,张家口市,涿鹿县",
    "levelType" : "3",
    "lng" : "115.22403",
    "lat" : "40.37636",
    "ID" : "130731",
    "name" : "涿鹿县"
  },
  {
    "pinYin" : "Chicheng",
    "parentId" : "130700",
    "shortName" : "赤城",
    "cityCode" : "0313",
    "mergerName" : "中国,河北省,张家口市,赤城县",
    "levelType" : "3",
    "lng" : "115.83187",
    "lat" : "40.91438",
    "ID" : "130732",
    "name" : "赤城县"
  },
  {
    "pinYin" : "Chongli",
    "parentId" : "130700",
    "shortName" : "崇礼",
    "cityCode" : "0313",
    "mergerName" : "中国,河北省,张家口市,崇礼县",
    "levelType" : "3",
    "lng" : "115.27993",
    "lat" : "40.97519",
    "ID" : "130733",
    "name" : "崇礼县"
  },
  {
    "pinYin" : "Chengde",
    "parentId" : "130000",
    "shortName" : "承德",
    "cityCode" : "0314",
    "mergerName" : "中国,河北省,承德市",
    "levelType" : "2",
    "lng" : "117.939152",
    "lat" : "40.976204",
    "ID" : "130800",
    "name" : "承德市"
  },
  {
    "pinYin" : "Shuangqiao",
    "parentId" : "130800",
    "shortName" : "双桥",
    "cityCode" : "0314",
    "mergerName" : "中国,河北省,承德市,双桥区",
    "levelType" : "3",
    "lng" : "117.9432",
    "lat" : "40.97466",
    "ID" : "130802",
    "name" : "双桥区"
  },
  {
    "pinYin" : "Shuangluan",
    "parentId" : "130800",
    "shortName" : "双滦",
    "cityCode" : "0314",
    "mergerName" : "中国,河北省,承德市,双滦区",
    "levelType" : "3",
    "lng" : "117.74487",
    "lat" : "40.95375",
    "ID" : "130803",
    "name" : "双滦区"
  },
  {
    "pinYin" : "Yingshouyingzikuangqu",
    "parentId" : "130800",
    "shortName" : "鹰手营子矿区",
    "cityCode" : "0314",
    "mergerName" : "中国,河北省,承德市,鹰手营子矿区",
    "levelType" : "3",
    "lng" : "117.65985",
    "lat" : "40.54744",
    "ID" : "130804",
    "name" : "鹰手营子矿区"
  },
  {
    "pinYin" : "Chengde",
    "parentId" : "130800",
    "shortName" : "承德",
    "cityCode" : "0314",
    "mergerName" : "中国,河北省,承德市,承德县",
    "levelType" : "3",
    "lng" : "118.17639",
    "lat" : "40.76985",
    "ID" : "130821",
    "name" : "承德县"
  },
  {
    "pinYin" : "Xinglong",
    "parentId" : "130800",
    "shortName" : "兴隆",
    "cityCode" : "0314",
    "mergerName" : "中国,河北省,承德市,兴隆县",
    "levelType" : "3",
    "lng" : "117.50073",
    "lat" : "40.41709",
    "ID" : "130822",
    "name" : "兴隆县"
  },
  {
    "pinYin" : "Pingquan",
    "parentId" : "130800",
    "shortName" : "平泉",
    "cityCode" : "0314",
    "mergerName" : "中国,河北省,承德市,平泉县",
    "levelType" : "3",
    "lng" : "118.70196",
    "lat" : "41.01839",
    "ID" : "130823",
    "name" : "平泉县"
  },
  {
    "pinYin" : "Luanping",
    "parentId" : "130800",
    "shortName" : "滦平",
    "cityCode" : "0314",
    "mergerName" : "中国,河北省,承德市,滦平县",
    "levelType" : "3",
    "lng" : "117.33276",
    "lat" : "40.94148",
    "ID" : "130824",
    "name" : "滦平县"
  },
  {
    "pinYin" : "Longhua",
    "parentId" : "130800",
    "shortName" : "隆化",
    "cityCode" : "0314",
    "mergerName" : "中国,河北省,承德市,隆化县",
    "levelType" : "3",
    "lng" : "117.7297",
    "lat" : "41.31412",
    "ID" : "130825",
    "name" : "隆化县"
  },
  {
    "pinYin" : "Fengning",
    "parentId" : "130800",
    "shortName" : "丰宁",
    "cityCode" : "0314",
    "mergerName" : "中国,河北省,承德市,丰宁满族自治县",
    "levelType" : "3",
    "lng" : "116.6492",
    "lat" : "41.20481",
    "ID" : "130826",
    "name" : "丰宁满族自治县"
  },
  {
    "pinYin" : "Kuancheng",
    "parentId" : "130800",
    "shortName" : "宽城",
    "cityCode" : "0314",
    "mergerName" : "中国,河北省,承德市,宽城满族自治县",
    "levelType" : "3",
    "lng" : "118.49176",
    "lat" : "40.60829",
    "ID" : "130827",
    "name" : "宽城满族自治县"
  },
  {
    "pinYin" : "Weichang",
    "parentId" : "130800",
    "shortName" : "围场",
    "cityCode" : "0314",
    "mergerName" : "中国,河北省,承德市,围场满族蒙古族自治县",
    "levelType" : "3",
    "lng" : "117.7601",
    "lat" : "41.94368",
    "ID" : "130828",
    "name" : "围场满族蒙古族自治县"
  },
  {
    "pinYin" : "Cangzhou",
    "parentId" : "130000",
    "shortName" : "沧州",
    "cityCode" : "0317",
    "mergerName" : "中国,河北省,沧州市",
    "levelType" : "2",
    "lng" : "116.857461",
    "lat" : "38.310582",
    "ID" : "130900",
    "name" : "沧州市"
  },
  {
    "pinYin" : "Xinhua",
    "parentId" : "130900",
    "shortName" : "新华",
    "cityCode" : "0317",
    "mergerName" : "中国,河北省,沧州市,新华区",
    "levelType" : "3",
    "lng" : "116.86643",
    "lat" : "38.31438",
    "ID" : "130902",
    "name" : "新华区"
  },
  {
    "pinYin" : "Yunhe",
    "parentId" : "130900",
    "shortName" : "运河",
    "cityCode" : "0317",
    "mergerName" : "中国,河北省,沧州市,运河区",
    "levelType" : "3",
    "lng" : "116.85706",
    "lat" : "38.31352",
    "ID" : "130903",
    "name" : "运河区"
  },
  {
    "pinYin" : "Cangxian",
    "parentId" : "130900",
    "shortName" : "沧县",
    "cityCode" : "0317",
    "mergerName" : "中国,河北省,沧州市,沧县",
    "levelType" : "3",
    "lng" : "116.87817",
    "lat" : "38.29361",
    "ID" : "130921",
    "name" : "沧县"
  },
  {
    "pinYin" : "Qingxian",
    "parentId" : "130900",
    "shortName" : "青县",
    "cityCode" : "0317",
    "mergerName" : "中国,河北省,沧州市,青县",
    "levelType" : "3",
    "lng" : "116.80316",
    "lat" : "38.58345",
    "ID" : "130922",
    "name" : "青县"
  },
  {
    "pinYin" : "Dongguang",
    "parentId" : "130900",
    "shortName" : "东光",
    "cityCode" : "0317",
    "mergerName" : "中国,河北省,沧州市,东光县",
    "levelType" : "3",
    "lng" : "116.53668",
    "lat" : "37.8857",
    "ID" : "130923",
    "name" : "东光县"
  },
  {
    "pinYin" : "Haixing",
    "parentId" : "130900",
    "shortName" : "海兴",
    "cityCode" : "0317",
    "mergerName" : "中国,河北省,沧州市,海兴县",
    "levelType" : "3",
    "lng" : "117.49758",
    "lat" : "38.13958",
    "ID" : "130924",
    "name" : "海兴县"
  },
  {
    "pinYin" : "Yanshan",
    "parentId" : "130900",
    "shortName" : "盐山",
    "cityCode" : "0317",
    "mergerName" : "中国,河北省,沧州市,盐山县",
    "levelType" : "3",
    "lng" : "117.23092",
    "lat" : "38.05647",
    "ID" : "130925",
    "name" : "盐山县"
  },
  {
    "pinYin" : "Suning",
    "parentId" : "130900",
    "shortName" : "肃宁",
    "cityCode" : "0317",
    "mergerName" : "中国,河北省,沧州市,肃宁县",
    "levelType" : "3",
    "lng" : "115.82971",
    "lat" : "38.42272",
    "ID" : "130926",
    "name" : "肃宁县"
  },
  {
    "pinYin" : "Nanpi",
    "parentId" : "130900",
    "shortName" : "南皮",
    "cityCode" : "0317",
    "mergerName" : "中国,河北省,沧州市,南皮县",
    "levelType" : "3",
    "lng" : "116.70224",
    "lat" : "38.04109",
    "ID" : "130927",
    "name" : "南皮县"
  },
  {
    "pinYin" : "Wuqiao",
    "parentId" : "130900",
    "shortName" : "吴桥",
    "cityCode" : "0317",
    "mergerName" : "中国,河北省,沧州市,吴桥县",
    "levelType" : "3",
    "lng" : "116.3847",
    "lat" : "37.62546",
    "ID" : "130928",
    "name" : "吴桥县"
  },
  {
    "pinYin" : "Xianxian",
    "parentId" : "130900",
    "shortName" : "献县",
    "cityCode" : "0317",
    "mergerName" : "中国,河北省,沧州市,献县",
    "levelType" : "3",
    "lng" : "116.12695",
    "lat" : "38.19228",
    "ID" : "130929",
    "name" : "献县"
  },
  {
    "pinYin" : "Mengcun",
    "parentId" : "130900",
    "shortName" : "孟村",
    "cityCode" : "0317",
    "mergerName" : "中国,河北省,沧州市,孟村回族自治县",
    "levelType" : "3",
    "lng" : "117.10412",
    "lat" : "38.05338",
    "ID" : "130930",
    "name" : "孟村回族自治县"
  },
  {
    "pinYin" : "Botou",
    "parentId" : "130900",
    "shortName" : "泊头",
    "cityCode" : "0317",
    "mergerName" : "中国,河北省,沧州市,泊头市",
    "levelType" : "3",
    "lng" : "116.57824",
    "lat" : "38.08359",
    "ID" : "130981",
    "name" : "泊头市"
  },
  {
    "pinYin" : "Renqiu",
    "parentId" : "130900",
    "shortName" : "任丘",
    "cityCode" : "0317",
    "mergerName" : "中国,河北省,沧州市,任丘市",
    "levelType" : "3",
    "lng" : "116.1033",
    "lat" : "38.71124",
    "ID" : "130982",
    "name" : "任丘市"
  },
  {
    "pinYin" : "Huanghua",
    "parentId" : "130900",
    "shortName" : "黄骅",
    "cityCode" : "0317",
    "mergerName" : "中国,河北省,沧州市,黄骅市",
    "levelType" : "3",
    "lng" : "117.33883",
    "lat" : "38.3706",
    "ID" : "130983",
    "name" : "黄骅市"
  },
  {
    "pinYin" : "Hejian",
    "parentId" : "130900",
    "shortName" : "河间",
    "cityCode" : "0317",
    "mergerName" : "中国,河北省,沧州市,河间市",
    "levelType" : "3",
    "lng" : "116.0993",
    "lat" : "38.44549",
    "ID" : "130984",
    "name" : "河间市"
  },
  {
    "pinYin" : "Langfang",
    "parentId" : "130000",
    "shortName" : "廊坊",
    "cityCode" : "0316",
    "mergerName" : "中国,河北省,廊坊市",
    "levelType" : "2",
    "lng" : "116.713873",
    "lat" : "39.529244",
    "ID" : "131000",
    "name" : "廊坊市"
  },
  {
    "pinYin" : "Anci",
    "parentId" : "131000",
    "shortName" : "安次",
    "cityCode" : "0316",
    "mergerName" : "中国,河北省,廊坊市,安次区",
    "levelType" : "3",
    "lng" : "116.70308",
    "lat" : "39.52057",
    "ID" : "131002",
    "name" : "安次区"
  },
  {
    "pinYin" : "Guangyang",
    "parentId" : "131000",
    "shortName" : "广阳",
    "cityCode" : "0316",
    "mergerName" : "中国,河北省,廊坊市,广阳区",
    "levelType" : "3",
    "lng" : "116.71069",
    "lat" : "39.52278",
    "ID" : "131003",
    "name" : "广阳区"
  },
  {
    "pinYin" : "Gu'an",
    "parentId" : "131000",
    "shortName" : "固安",
    "cityCode" : "0316",
    "mergerName" : "中国,河北省,廊坊市,固安县",
    "levelType" : "3",
    "lng" : "116.29916",
    "lat" : "39.43833",
    "ID" : "131022",
    "name" : "固安县"
  },
  {
    "pinYin" : "Yongqing",
    "parentId" : "131000",
    "shortName" : "永清",
    "cityCode" : "0316",
    "mergerName" : "中国,河北省,廊坊市,永清县",
    "levelType" : "3",
    "lng" : "116.50091",
    "lat" : "39.32069",
    "ID" : "131023",
    "name" : "永清县"
  },
  {
    "pinYin" : "Xianghe",
    "parentId" : "131000",
    "shortName" : "香河",
    "cityCode" : "0316",
    "mergerName" : "中国,河北省,廊坊市,香河县",
    "levelType" : "3",
    "lng" : "117.00634",
    "lat" : "39.76133",
    "ID" : "131024",
    "name" : "香河县"
  },
  {
    "pinYin" : "Daicheng",
    "parentId" : "131000",
    "shortName" : "大城",
    "cityCode" : "0316",
    "mergerName" : "中国,河北省,廊坊市,大城县",
    "levelType" : "3",
    "lng" : "116.65353",
    "lat" : "38.70534",
    "ID" : "131025",
    "name" : "大城县"
  },
  {
    "pinYin" : "Wen'an",
    "parentId" : "131000",
    "shortName" : "文安",
    "cityCode" : "0316",
    "mergerName" : "中国,河北省,廊坊市,文安县",
    "levelType" : "3",
    "lng" : "116.45846",
    "lat" : "38.87325",
    "ID" : "131026",
    "name" : "文安县"
  },
  {
    "pinYin" : "Dachang",
    "parentId" : "131000",
    "shortName" : "大厂",
    "cityCode" : "0316",
    "mergerName" : "中国,河北省,廊坊市,大厂回族自治县",
    "levelType" : "3",
    "lng" : "116.98916",
    "lat" : "39.88649",
    "ID" : "131028",
    "name" : "大厂回族自治县"
  },
  {
    "pinYin" : "Bazhou",
    "parentId" : "131000",
    "shortName" : "霸州",
    "cityCode" : "0316",
    "mergerName" : "中国,河北省,廊坊市,霸州市",
    "levelType" : "3",
    "lng" : "116.39154",
    "lat" : "39.12569",
    "ID" : "131081",
    "name" : "霸州市"
  },
  {
    "pinYin" : "Sanhe",
    "parentId" : "131000",
    "shortName" : "三河",
    "cityCode" : "0316",
    "mergerName" : "中国,河北省,廊坊市,三河市",
    "levelType" : "3",
    "lng" : "117.07229",
    "lat" : "39.98358",
    "ID" : "131082",
    "name" : "三河市"
  },
  {
    "pinYin" : "Hengshui",
    "parentId" : "130000",
    "shortName" : "衡水",
    "cityCode" : "0318",
    "mergerName" : "中国,河北省,衡水市",
    "levelType" : "2",
    "lng" : "115.665993",
    "lat" : "37.735097",
    "ID" : "131100",
    "name" : "衡水市"
  },
  {
    "pinYin" : "Taocheng",
    "parentId" : "131100",
    "shortName" : "桃城",
    "cityCode" : "0318",
    "mergerName" : "中国,河北省,衡水市,桃城区",
    "levelType" : "3",
    "lng" : "115.67529",
    "lat" : "37.73499",
    "ID" : "131102",
    "name" : "桃城区"
  },
  {
    "pinYin" : "Zaoqiang",
    "parentId" : "131100",
    "shortName" : "枣强",
    "cityCode" : "0318",
    "mergerName" : "中国,河北省,衡水市,枣强县",
    "levelType" : "3",
    "lng" : "115.72576",
    "lat" : "37.51027",
    "ID" : "131121",
    "name" : "枣强县"
  },
  {
    "pinYin" : "Wuyi",
    "parentId" : "131100",
    "shortName" : "武邑",
    "cityCode" : "0318",
    "mergerName" : "中国,河北省,衡水市,武邑县",
    "levelType" : "3",
    "lng" : "115.88748",
    "lat" : "37.80181",
    "ID" : "131122",
    "name" : "武邑县"
  },
  {
    "pinYin" : "Wuqiang",
    "parentId" : "131100",
    "shortName" : "武强",
    "cityCode" : "0318",
    "mergerName" : "中国,河北省,衡水市,武强县",
    "levelType" : "3",
    "lng" : "115.98226",
    "lat" : "38.04138",
    "ID" : "131123",
    "name" : "武强县"
  },
  {
    "pinYin" : "Raoyang",
    "parentId" : "131100",
    "shortName" : "饶阳",
    "cityCode" : "0318",
    "mergerName" : "中国,河北省,衡水市,饶阳县",
    "levelType" : "3",
    "lng" : "115.72558",
    "lat" : "38.23529",
    "ID" : "131124",
    "name" : "饶阳县"
  },
  {
    "pinYin" : "Anping",
    "parentId" : "131100",
    "shortName" : "安平",
    "cityCode" : "0318",
    "mergerName" : "中国,河北省,衡水市,安平县",
    "levelType" : "3",
    "lng" : "115.51876",
    "lat" : "38.23388",
    "ID" : "131125",
    "name" : "安平县"
  },
  {
    "pinYin" : "Gucheng",
    "parentId" : "131100",
    "shortName" : "故城",
    "cityCode" : "0318",
    "mergerName" : "中国,河北省,衡水市,故城县",
    "levelType" : "3",
    "lng" : "115.97076",
    "lat" : "37.34773",
    "ID" : "131126",
    "name" : "故城县"
  },
  {
    "pinYin" : "Jingxian",
    "parentId" : "131100",
    "shortName" : "景县",
    "cityCode" : "0318",
    "mergerName" : "中国,河北省,衡水市,景县",
    "levelType" : "3",
    "lng" : "116.26904",
    "lat" : "37.6926",
    "ID" : "131127",
    "name" : "景县"
  },
  {
    "pinYin" : "Fucheng",
    "parentId" : "131100",
    "shortName" : "阜城",
    "cityCode" : "0318",
    "mergerName" : "中国,河北省,衡水市,阜城县",
    "levelType" : "3",
    "lng" : "116.14431",
    "lat" : "37.86881",
    "ID" : "131128",
    "name" : "阜城县"
  },
  {
    "pinYin" : "Jizhou",
    "parentId" : "131100",
    "shortName" : "冀州",
    "cityCode" : "0318",
    "mergerName" : "中国,河北省,衡水市,冀州市",
    "levelType" : "3",
    "lng" : "115.57934",
    "lat" : "37.55082",
    "ID" : "131181",
    "name" : "冀州市"
  },
  {
    "pinYin" : "Shenzhou",
    "parentId" : "131100",
    "shortName" : "深州",
    "cityCode" : "0318",
    "mergerName" : "中国,河北省,衡水市,深州市",
    "levelType" : "3",
    "lng" : "115.55993",
    "lat" : "38.00109",
    "ID" : "131182",
    "name" : "深州市"
  },
  {
    "pinYin" : "Shanxi",
    "parentId" : "100000",
    "shortName" : "山西",
    "cityCode" : "",
    "mergerName" : "中国,山西省",
    "levelType" : "1",
    "lng" : "112.549248",
    "lat" : "37.857014",
    "ID" : "140000",
    "name" : "山西省"
  },
  {
    "pinYin" : "Taiyuan",
    "parentId" : "140000",
    "shortName" : "太原",
    "cityCode" : "0351",
    "mergerName" : "中国,山西省,太原市",
    "levelType" : "2",
    "lng" : "112.549248",
    "lat" : "37.857014",
    "ID" : "140100",
    "name" : "太原市"
  },
  {
    "pinYin" : "Xiaodian",
    "parentId" : "140100",
    "shortName" : "小店",
    "cityCode" : "0351",
    "mergerName" : "中国,山西省,太原市,小店区",
    "levelType" : "3",
    "lng" : "112.56878",
    "lat" : "37.73565",
    "ID" : "140105",
    "name" : "小店区"
  },
  {
    "pinYin" : "Yingze",
    "parentId" : "140100",
    "shortName" : "迎泽",
    "cityCode" : "0351",
    "mergerName" : "中国,山西省,太原市,迎泽区",
    "levelType" : "3",
    "lng" : "112.56338",
    "lat" : "37.86326",
    "ID" : "140106",
    "name" : "迎泽区"
  },
  {
    "pinYin" : "Xinghualing",
    "parentId" : "140100",
    "shortName" : "杏花岭",
    "cityCode" : "0351",
    "mergerName" : "中国,山西省,太原市,杏花岭区",
    "levelType" : "3",
    "lng" : "112.56237",
    "lat" : "37.88429",
    "ID" : "140107",
    "name" : "杏花岭区"
  },
  {
    "pinYin" : "Jiancaoping",
    "parentId" : "140100",
    "shortName" : "尖草坪",
    "cityCode" : "0351",
    "mergerName" : "中国,山西省,太原市,尖草坪区",
    "levelType" : "3",
    "lng" : "112.48709",
    "lat" : "37.94193",
    "ID" : "140108",
    "name" : "尖草坪区"
  },
  {
    "pinYin" : "Wanbailin",
    "parentId" : "140100",
    "shortName" : "万柏林",
    "cityCode" : "0351",
    "mergerName" : "中国,山西省,太原市,万柏林区",
    "levelType" : "3",
    "lng" : "112.51553",
    "lat" : "37.85923",
    "ID" : "140109",
    "name" : "万柏林区"
  },
  {
    "pinYin" : "Jinyuan",
    "parentId" : "140100",
    "shortName" : "晋源",
    "cityCode" : "0351",
    "mergerName" : "中国,山西省,太原市,晋源区",
    "levelType" : "3",
    "lng" : "112.47985",
    "lat" : "37.72479",
    "ID" : "140110",
    "name" : "晋源区"
  },
  {
    "pinYin" : "Qingxu",
    "parentId" : "140100",
    "shortName" : "清徐",
    "cityCode" : "0351",
    "mergerName" : "中国,山西省,太原市,清徐县",
    "levelType" : "3",
    "lng" : "112.35888",
    "lat" : "37.60758",
    "ID" : "140121",
    "name" : "清徐县"
  },
  {
    "pinYin" : "Yangqu",
    "parentId" : "140100",
    "shortName" : "阳曲",
    "cityCode" : "0351",
    "mergerName" : "中国,山西省,太原市,阳曲县",
    "levelType" : "3",
    "lng" : "112.67861",
    "lat" : "38.05989",
    "ID" : "140122",
    "name" : "阳曲县"
  },
  {
    "pinYin" : "Loufan",
    "parentId" : "140100",
    "shortName" : "娄烦",
    "cityCode" : "0351",
    "mergerName" : "中国,山西省,太原市,娄烦县",
    "levelType" : "3",
    "lng" : "111.79473",
    "lat" : "38.06689",
    "ID" : "140123",
    "name" : "娄烦县"
  },
  {
    "pinYin" : "Gujiao",
    "parentId" : "140100",
    "shortName" : "古交",
    "cityCode" : "0351",
    "mergerName" : "中国,山西省,太原市,古交市",
    "levelType" : "3",
    "lng" : "112.16918",
    "lat" : "37.90983",
    "ID" : "140181",
    "name" : "古交市"
  },
  {
    "pinYin" : "Datong",
    "parentId" : "140000",
    "shortName" : "大同",
    "cityCode" : "0352",
    "mergerName" : "中国,山西省,大同市",
    "levelType" : "2",
    "lng" : "113.295259",
    "lat" : "40.09031",
    "ID" : "140200",
    "name" : "大同市"
  },
  {
    "pinYin" : "Chengqu",
    "parentId" : "140200",
    "shortName" : "城区",
    "cityCode" : "0352",
    "mergerName" : "中国,山西省,大同市,城区",
    "levelType" : "3",
    "lng" : "113.298",
    "lat" : "40.07566",
    "ID" : "140202",
    "name" : "城区"
  },
  {
    "pinYin" : "Kuangqu",
    "parentId" : "140200",
    "shortName" : "矿区",
    "cityCode" : "0352",
    "mergerName" : "中国,山西省,大同市,矿区",
    "levelType" : "3",
    "lng" : "113.1772",
    "lat" : "40.03685",
    "ID" : "140203",
    "name" : "矿区"
  },
  {
    "pinYin" : "Nanjiao",
    "parentId" : "140200",
    "shortName" : "南郊",
    "cityCode" : "0352",
    "mergerName" : "中国,山西省,大同市,南郊区",
    "levelType" : "3",
    "lng" : "113.14947",
    "lat" : "40.00539",
    "ID" : "140211",
    "name" : "南郊区"
  },
  {
    "pinYin" : "Xinrong",
    "parentId" : "140200",
    "shortName" : "新荣",
    "cityCode" : "0352",
    "mergerName" : "中国,山西省,大同市,新荣区",
    "levelType" : "3",
    "lng" : "113.13504",
    "lat" : "40.25618",
    "ID" : "140212",
    "name" : "新荣区"
  },
  {
    "pinYin" : "Yanggao",
    "parentId" : "140200",
    "shortName" : "阳高",
    "cityCode" : "0352",
    "mergerName" : "中国,山西省,大同市,阳高县",
    "levelType" : "3",
    "lng" : "113.75012",
    "lat" : "40.36256",
    "ID" : "140221",
    "name" : "阳高县"
  },
  {
    "pinYin" : "Tianzhen",
    "parentId" : "140200",
    "shortName" : "天镇",
    "cityCode" : "0352",
    "mergerName" : "中国,山西省,大同市,天镇县",
    "levelType" : "3",
    "lng" : "114.0931",
    "lat" : "40.42299",
    "ID" : "140222",
    "name" : "天镇县"
  },
  {
    "pinYin" : "Guangling",
    "parentId" : "140200",
    "shortName" : "广灵",
    "cityCode" : "0352",
    "mergerName" : "中国,山西省,大同市,广灵县",
    "levelType" : "3",
    "lng" : "114.28204",
    "lat" : "39.76082",
    "ID" : "140223",
    "name" : "广灵县"
  },
  {
    "pinYin" : "Lingqiu",
    "parentId" : "140200",
    "shortName" : "灵丘",
    "cityCode" : "0352",
    "mergerName" : "中国,山西省,大同市,灵丘县",
    "levelType" : "3",
    "lng" : "114.23672",
    "lat" : "39.44043",
    "ID" : "140224",
    "name" : "灵丘县"
  },
  {
    "pinYin" : "Hunyuan",
    "parentId" : "140200",
    "shortName" : "浑源",
    "cityCode" : "0352",
    "mergerName" : "中国,山西省,大同市,浑源县",
    "levelType" : "3",
    "lng" : "113.69552",
    "lat" : "39.69962",
    "ID" : "140225",
    "name" : "浑源县"
  },
  {
    "pinYin" : "Zuoyun",
    "parentId" : "140200",
    "shortName" : "左云",
    "cityCode" : "0352",
    "mergerName" : "中国,山西省,大同市,左云县",
    "levelType" : "3",
    "lng" : "112.70266",
    "lat" : "40.01336",
    "ID" : "140226",
    "name" : "左云县"
  },
  {
    "pinYin" : "Datong",
    "parentId" : "140200",
    "shortName" : "大同",
    "cityCode" : "0352",
    "mergerName" : "中国,山西省,大同市,大同县",
    "levelType" : "3",
    "lng" : "113.61212",
    "lat" : "40.04012",
    "ID" : "140227",
    "name" : "大同县"
  },
  {
    "pinYin" : "Yangquan",
    "parentId" : "140000",
    "shortName" : "阳泉",
    "cityCode" : "0353",
    "mergerName" : "中国,山西省,阳泉市",
    "levelType" : "2",
    "lng" : "113.583285",
    "lat" : "37.861188",
    "ID" : "140300",
    "name" : "阳泉市"
  },
  {
    "pinYin" : "Chengqu",
    "parentId" : "140300",
    "shortName" : "城区",
    "cityCode" : "0353",
    "mergerName" : "中国,山西省,阳泉市,城区",
    "levelType" : "3",
    "lng" : "113.60069",
    "lat" : "37.8474",
    "ID" : "140302",
    "name" : "城区"
  },
  {
    "pinYin" : "Kuangqu",
    "parentId" : "140300",
    "shortName" : "矿区",
    "cityCode" : "0353",
    "mergerName" : "中国,山西省,阳泉市,矿区",
    "levelType" : "3",
    "lng" : "113.55677",
    "lat" : "37.86895",
    "ID" : "140303",
    "name" : "矿区"
  },
  {
    "pinYin" : "Jiaoqu",
    "parentId" : "140300",
    "shortName" : "郊区",
    "cityCode" : "0353",
    "mergerName" : "中国,山西省,阳泉市,郊区",
    "levelType" : "3",
    "lng" : "113.58539",
    "lat" : "37.94139",
    "ID" : "140311",
    "name" : "郊区"
  },
  {
    "pinYin" : "Pingding",
    "parentId" : "140300",
    "shortName" : "平定",
    "cityCode" : "0353",
    "mergerName" : "中国,山西省,阳泉市,平定县",
    "levelType" : "3",
    "lng" : "113.65789",
    "lat" : "37.78601",
    "ID" : "140321",
    "name" : "平定县"
  },
  {
    "pinYin" : "Yuxian",
    "parentId" : "140300",
    "shortName" : "盂县",
    "cityCode" : "0353",
    "mergerName" : "中国,山西省,阳泉市,盂县",
    "levelType" : "3",
    "lng" : "113.41235",
    "lat" : "38.08579",
    "ID" : "140322",
    "name" : "盂县"
  },
  {
    "pinYin" : "Changzhi",
    "parentId" : "140000",
    "shortName" : "长治",
    "cityCode" : "0355",
    "mergerName" : "中国,山西省,长治市",
    "levelType" : "2",
    "lng" : "113.113556",
    "lat" : "36.191112",
    "ID" : "140400",
    "name" : "长治市"
  },
  {
    "pinYin" : "Chengqu",
    "parentId" : "140400",
    "shortName" : "城区",
    "cityCode" : "0355",
    "mergerName" : "中国,山西省,长治市,城区",
    "levelType" : "3",
    "lng" : "113.12308",
    "lat" : "36.20351",
    "ID" : "140402",
    "name" : "城区"
  },
  {
    "pinYin" : "Jiaoqu",
    "parentId" : "140400",
    "shortName" : "郊区",
    "cityCode" : "0355",
    "mergerName" : "中国,山西省,长治市,郊区",
    "levelType" : "3",
    "lng" : "113.12653",
    "lat" : "36.19918",
    "ID" : "140411",
    "name" : "郊区"
  },
  {
    "pinYin" : "Changzhi",
    "parentId" : "140400",
    "shortName" : "长治",
    "cityCode" : "0355",
    "mergerName" : "中国,山西省,长治市,长治县",
    "levelType" : "3",
    "lng" : "113.04791",
    "lat" : "36.04722",
    "ID" : "140421",
    "name" : "长治县"
  },
  {
    "pinYin" : "Xiangyuan",
    "parentId" : "140400",
    "shortName" : "襄垣",
    "cityCode" : "0355",
    "mergerName" : "中国,山西省,长治市,襄垣县",
    "levelType" : "3",
    "lng" : "113.05157",
    "lat" : "36.53527",
    "ID" : "140423",
    "name" : "襄垣县"
  },
  {
    "pinYin" : "Tunliu",
    "parentId" : "140400",
    "shortName" : "屯留",
    "cityCode" : "0355",
    "mergerName" : "中国,山西省,长治市,屯留县",
    "levelType" : "3",
    "lng" : "112.89196",
    "lat" : "36.31579",
    "ID" : "140424",
    "name" : "屯留县"
  },
  {
    "pinYin" : "Pingshun",
    "parentId" : "140400",
    "shortName" : "平顺",
    "cityCode" : "0355",
    "mergerName" : "中国,山西省,长治市,平顺县",
    "levelType" : "3",
    "lng" : "113.43603",
    "lat" : "36.20005",
    "ID" : "140425",
    "name" : "平顺县"
  },
  {
    "pinYin" : "Licheng",
    "parentId" : "140400",
    "shortName" : "黎城",
    "cityCode" : "0355",
    "mergerName" : "中国,山西省,长治市,黎城县",
    "levelType" : "3",
    "lng" : "113.38766",
    "lat" : "36.50301",
    "ID" : "140426",
    "name" : "黎城县"
  },
  {
    "pinYin" : "Huguan",
    "parentId" : "140400",
    "shortName" : "壶关",
    "cityCode" : "0355",
    "mergerName" : "中国,山西省,长治市,壶关县",
    "levelType" : "3",
    "lng" : "113.207",
    "lat" : "36.11301",
    "ID" : "140427",
    "name" : "壶关县"
  },
  {
    "pinYin" : "Zhangzi",
    "parentId" : "140400",
    "shortName" : "长子",
    "cityCode" : "0355",
    "mergerName" : "中国,山西省,长治市,长子县",
    "levelType" : "3",
    "lng" : "112.87731",
    "lat" : "36.12125",
    "ID" : "140428",
    "name" : "长子县"
  },
  {
    "pinYin" : "Wuxiang",
    "parentId" : "140400",
    "shortName" : "武乡",
    "cityCode" : "0355",
    "mergerName" : "中国,山西省,长治市,武乡县",
    "levelType" : "3",
    "lng" : "112.86343",
    "lat" : "36.83687",
    "ID" : "140429",
    "name" : "武乡县"
  },
  {
    "pinYin" : "Qinxian",
    "parentId" : "140400",
    "shortName" : "沁县",
    "cityCode" : "0355",
    "mergerName" : "中国,山西省,长治市,沁县",
    "levelType" : "3",
    "lng" : "112.69863",
    "lat" : "36.75628",
    "ID" : "140430",
    "name" : "沁县"
  },
  {
    "pinYin" : "Qinyuan",
    "parentId" : "140400",
    "shortName" : "沁源",
    "cityCode" : "0355",
    "mergerName" : "中国,山西省,长治市,沁源县",
    "levelType" : "3",
    "lng" : "112.33758",
    "lat" : "36.50008",
    "ID" : "140431",
    "name" : "沁源县"
  },
  {
    "pinYin" : "Lucheng",
    "parentId" : "140400",
    "shortName" : "潞城",
    "cityCode" : "0355",
    "mergerName" : "中国,山西省,长治市,潞城市",
    "levelType" : "3",
    "lng" : "113.22888",
    "lat" : "36.33414",
    "ID" : "140481",
    "name" : "潞城市"
  },
  {
    "pinYin" : "Jincheng",
    "parentId" : "140000",
    "shortName" : "晋城",
    "cityCode" : "0356",
    "mergerName" : "中国,山西省,晋城市",
    "levelType" : "2",
    "lng" : "112.851274",
    "lat" : "35.497553",
    "ID" : "140500",
    "name" : "晋城市"
  },
  {
    "pinYin" : "Chengqu",
    "parentId" : "140500",
    "shortName" : "城区",
    "cityCode" : "0356",
    "mergerName" : "中国,山西省,晋城市,城区",
    "levelType" : "3",
    "lng" : "112.85319",
    "lat" : "35.50175",
    "ID" : "140502",
    "name" : "城区"
  },
  {
    "pinYin" : "Qinshui",
    "parentId" : "140500",
    "shortName" : "沁水",
    "cityCode" : "0356",
    "mergerName" : "中国,山西省,晋城市,沁水县",
    "levelType" : "3",
    "lng" : "112.1871",
    "lat" : "35.69102",
    "ID" : "140521",
    "name" : "沁水县"
  },
  {
    "pinYin" : "Yangcheng",
    "parentId" : "140500",
    "shortName" : "阳城",
    "cityCode" : "0356",
    "mergerName" : "中国,山西省,晋城市,阳城县",
    "levelType" : "3",
    "lng" : "112.41485",
    "lat" : "35.48614",
    "ID" : "140522",
    "name" : "阳城县"
  },
  {
    "pinYin" : "Lingchuan",
    "parentId" : "140500",
    "shortName" : "陵川",
    "cityCode" : "0356",
    "mergerName" : "中国,山西省,晋城市,陵川县",
    "levelType" : "3",
    "lng" : "113.2806",
    "lat" : "35.77532",
    "ID" : "140524",
    "name" : "陵川县"
  },
  {
    "pinYin" : "Zezhou",
    "parentId" : "140500",
    "shortName" : "泽州",
    "cityCode" : "0356",
    "mergerName" : "中国,山西省,晋城市,泽州县",
    "levelType" : "3",
    "lng" : "112.83947",
    "lat" : "35.50789",
    "ID" : "140525",
    "name" : "泽州县"
  },
  {
    "pinYin" : "Gaoping",
    "parentId" : "140500",
    "shortName" : "高平",
    "cityCode" : "0356",
    "mergerName" : "中国,山西省,晋城市,高平市",
    "levelType" : "3",
    "lng" : "112.92288",
    "lat" : "35.79705",
    "ID" : "140581",
    "name" : "高平市"
  },
  {
    "pinYin" : "Shuozhou",
    "parentId" : "140000",
    "shortName" : "朔州",
    "cityCode" : "0349",
    "mergerName" : "中国,山西省,朔州市",
    "levelType" : "2",
    "lng" : "112.433387",
    "lat" : "39.331261",
    "ID" : "140600",
    "name" : "朔州市"
  },
  {
    "pinYin" : "Shuocheng",
    "parentId" : "140600",
    "shortName" : "朔城",
    "cityCode" : "0349",
    "mergerName" : "中国,山西省,朔州市,朔城区",
    "levelType" : "3",
    "lng" : "112.43189",
    "lat" : "39.31982",
    "ID" : "140602",
    "name" : "朔城区"
  },
  {
    "pinYin" : "Pinglu",
    "parentId" : "140600",
    "shortName" : "平鲁",
    "cityCode" : "0349",
    "mergerName" : "中国,山西省,朔州市,平鲁区",
    "levelType" : "3",
    "lng" : "112.28833",
    "lat" : "39.51155",
    "ID" : "140603",
    "name" : "平鲁区"
  },
  {
    "pinYin" : "Shanyin",
    "parentId" : "140600",
    "shortName" : "山阴",
    "cityCode" : "0349",
    "mergerName" : "中国,山西省,朔州市,山阴县",
    "levelType" : "3",
    "lng" : "112.81662",
    "lat" : "39.52697",
    "ID" : "140621",
    "name" : "山阴县"
  },
  {
    "pinYin" : "Yingxian",
    "parentId" : "140600",
    "shortName" : "应县",
    "cityCode" : "0349",
    "mergerName" : "中国,山西省,朔州市,应县",
    "levelType" : "3",
    "lng" : "113.19052",
    "lat" : "39.55279",
    "ID" : "140622",
    "name" : "应县"
  },
  {
    "pinYin" : "Youyu",
    "parentId" : "140600",
    "shortName" : "右玉",
    "cityCode" : "0349",
    "mergerName" : "中国,山西省,朔州市,右玉县",
    "levelType" : "3",
    "lng" : "112.46902",
    "lat" : "39.99011",
    "ID" : "140623",
    "name" : "右玉县"
  },
  {
    "pinYin" : "Huairen",
    "parentId" : "140600",
    "shortName" : "怀仁",
    "cityCode" : "0349",
    "mergerName" : "中国,山西省,朔州市,怀仁县",
    "levelType" : "3",
    "lng" : "113.10009",
    "lat" : "39.82806",
    "ID" : "140624",
    "name" : "怀仁县"
  },
  {
    "pinYin" : "Jinzhong",
    "parentId" : "140000",
    "shortName" : "晋中",
    "cityCode" : "0354",
    "mergerName" : "中国,山西省,晋中市",
    "levelType" : "2",
    "lng" : "112.736465",
    "lat" : "37.696495",
    "ID" : "140700",
    "name" : "晋中市"
  },
  {
    "pinYin" : "Yuci",
    "parentId" : "140700",
    "shortName" : "榆次",
    "cityCode" : "0354",
    "mergerName" : "中国,山西省,晋中市,榆次区",
    "levelType" : "3",
    "lng" : "112.70788",
    "lat" : "37.6978",
    "ID" : "140702",
    "name" : "榆次区"
  },
  {
    "pinYin" : "Yushe",
    "parentId" : "140700",
    "shortName" : "榆社",
    "cityCode" : "0354",
    "mergerName" : "中国,山西省,晋中市,榆社县",
    "levelType" : "3",
    "lng" : "112.97558",
    "lat" : "37.0721",
    "ID" : "140721",
    "name" : "榆社县"
  },
  {
    "pinYin" : "Zuoquan",
    "parentId" : "140700",
    "shortName" : "左权",
    "cityCode" : "0354",
    "mergerName" : "中国,山西省,晋中市,左权县",
    "levelType" : "3",
    "lng" : "113.37918",
    "lat" : "37.08235",
    "ID" : "140722",
    "name" : "左权县"
  },
  {
    "pinYin" : "Heshun",
    "parentId" : "140700",
    "shortName" : "和顺",
    "cityCode" : "0354",
    "mergerName" : "中国,山西省,晋中市,和顺县",
    "levelType" : "3",
    "lng" : "113.56988",
    "lat" : "37.32963",
    "ID" : "140723",
    "name" : "和顺县"
  },
  {
    "pinYin" : "Xiyang",
    "parentId" : "140700",
    "shortName" : "昔阳",
    "cityCode" : "0354",
    "mergerName" : "中国,山西省,晋中市,昔阳县",
    "levelType" : "3",
    "lng" : "113.70517",
    "lat" : "37.61863",
    "ID" : "140724",
    "name" : "昔阳县"
  },
  {
    "pinYin" : "Shouyang",
    "parentId" : "140700",
    "shortName" : "寿阳",
    "cityCode" : "0354",
    "mergerName" : "中国,山西省,晋中市,寿阳县",
    "levelType" : "3",
    "lng" : "113.17495",
    "lat" : "37.88899",
    "ID" : "140725",
    "name" : "寿阳县"
  },
  {
    "pinYin" : "Taigu",
    "parentId" : "140700",
    "shortName" : "太谷",
    "cityCode" : "0354",
    "mergerName" : "中国,山西省,晋中市,太谷县",
    "levelType" : "3",
    "lng" : "112.55246",
    "lat" : "37.42161",
    "ID" : "140726",
    "name" : "太谷县"
  },
  {
    "pinYin" : "Qixian",
    "parentId" : "140700",
    "shortName" : "祁县",
    "cityCode" : "0354",
    "mergerName" : "中国,山西省,晋中市,祁县",
    "levelType" : "3",
    "lng" : "112.33358",
    "lat" : "37.3579",
    "ID" : "140727",
    "name" : "祁县"
  },
  {
    "pinYin" : "Pingyao",
    "parentId" : "140700",
    "shortName" : "平遥",
    "cityCode" : "0354",
    "mergerName" : "中国,山西省,晋中市,平遥县",
    "levelType" : "3",
    "lng" : "112.17553",
    "lat" : "37.1892",
    "ID" : "140728",
    "name" : "平遥县"
  },
  {
    "pinYin" : "Lingshi",
    "parentId" : "140700",
    "shortName" : "灵石",
    "cityCode" : "0354",
    "mergerName" : "中国,山西省,晋中市,灵石县",
    "levelType" : "3",
    "lng" : "111.7774",
    "lat" : "36.84814",
    "ID" : "140729",
    "name" : "灵石县"
  },
  {
    "pinYin" : "Jiexiu",
    "parentId" : "140700",
    "shortName" : "介休",
    "cityCode" : "0354",
    "mergerName" : "中国,山西省,晋中市,介休市",
    "levelType" : "3",
    "lng" : "111.91824",
    "lat" : "37.02771",
    "ID" : "140781",
    "name" : "介休市"
  },
  {
    "pinYin" : "Yuncheng",
    "parentId" : "140000",
    "shortName" : "运城",
    "cityCode" : "0359",
    "mergerName" : "中国,山西省,运城市",
    "levelType" : "2",
    "lng" : "111.003957",
    "lat" : "35.022778",
    "ID" : "140800",
    "name" : "运城市"
  },
  {
    "pinYin" : "Yanhu",
    "parentId" : "140800",
    "shortName" : "盐湖",
    "cityCode" : "0359",
    "mergerName" : "中国,山西省,运城市,盐湖区",
    "levelType" : "3",
    "lng" : "110.99827",
    "lat" : "35.0151",
    "ID" : "140802",
    "name" : "盐湖区"
  },
  {
    "pinYin" : "Linyi",
    "parentId" : "140800",
    "shortName" : "临猗",
    "cityCode" : "0359",
    "mergerName" : "中国,山西省,运城市,临猗县",
    "levelType" : "3",
    "lng" : "110.77432",
    "lat" : "35.14455",
    "ID" : "140821",
    "name" : "临猗县"
  },
  {
    "pinYin" : "Wanrong",
    "parentId" : "140800",
    "shortName" : "万荣",
    "cityCode" : "0359",
    "mergerName" : "中国,山西省,运城市,万荣县",
    "levelType" : "3",
    "lng" : "110.83657",
    "lat" : "35.41556",
    "ID" : "140822",
    "name" : "万荣县"
  },
  {
    "pinYin" : "Wenxi",
    "parentId" : "140800",
    "shortName" : "闻喜",
    "cityCode" : "0359",
    "mergerName" : "中国,山西省,运城市,闻喜县",
    "levelType" : "3",
    "lng" : "111.22265",
    "lat" : "35.35553",
    "ID" : "140823",
    "name" : "闻喜县"
  },
  {
    "pinYin" : "Jishan",
    "parentId" : "140800",
    "shortName" : "稷山",
    "cityCode" : "0359",
    "mergerName" : "中国,山西省,运城市,稷山县",
    "levelType" : "3",
    "lng" : "110.97924",
    "lat" : "35.59993",
    "ID" : "140824",
    "name" : "稷山县"
  },
  {
    "pinYin" : "Xinjiang",
    "parentId" : "140800",
    "shortName" : "新绛",
    "cityCode" : "0359",
    "mergerName" : "中国,山西省,运城市,新绛县",
    "levelType" : "3",
    "lng" : "111.22509",
    "lat" : "35.61566",
    "ID" : "140825",
    "name" : "新绛县"
  },
  {
    "pinYin" : "Jiangxian",
    "parentId" : "140800",
    "shortName" : "绛县",
    "cityCode" : "0359",
    "mergerName" : "中国,山西省,运城市,绛县",
    "levelType" : "3",
    "lng" : "111.56668",
    "lat" : "35.49096",
    "ID" : "140826",
    "name" : "绛县"
  },
  {
    "pinYin" : "Yuanqu",
    "parentId" : "140800",
    "shortName" : "垣曲",
    "cityCode" : "0359",
    "mergerName" : "中国,山西省,运城市,垣曲县",
    "levelType" : "3",
    "lng" : "111.67166",
    "lat" : "35.29923",
    "ID" : "140827",
    "name" : "垣曲县"
  },
  {
    "pinYin" : "Xiaxian",
    "parentId" : "140800",
    "shortName" : "夏县",
    "cityCode" : "0359",
    "mergerName" : "中国,山西省,运城市,夏县",
    "levelType" : "3",
    "lng" : "111.21966",
    "lat" : "35.14121",
    "ID" : "140828",
    "name" : "夏县"
  },
  {
    "pinYin" : "Pinglu",
    "parentId" : "140800",
    "shortName" : "平陆",
    "cityCode" : "0359",
    "mergerName" : "中国,山西省,运城市,平陆县",
    "levelType" : "3",
    "lng" : "111.21704",
    "lat" : "34.83772",
    "ID" : "140829",
    "name" : "平陆县"
  },
  {
    "pinYin" : "Ruicheng",
    "parentId" : "140800",
    "shortName" : "芮城",
    "cityCode" : "0359",
    "mergerName" : "中国,山西省,运城市,芮城县",
    "levelType" : "3",
    "lng" : "110.69455",
    "lat" : "34.69384",
    "ID" : "140830",
    "name" : "芮城县"
  },
  {
    "pinYin" : "Yongji",
    "parentId" : "140800",
    "shortName" : "永济",
    "cityCode" : "0359",
    "mergerName" : "中国,山西省,运城市,永济市",
    "levelType" : "3",
    "lng" : "110.44537",
    "lat" : "34.86556",
    "ID" : "140881",
    "name" : "永济市"
  },
  {
    "pinYin" : "Hejin",
    "parentId" : "140800",
    "shortName" : "河津",
    "cityCode" : "0359",
    "mergerName" : "中国,山西省,运城市,河津市",
    "levelType" : "3",
    "lng" : "110.7116",
    "lat" : "35.59478",
    "ID" : "140882",
    "name" : "河津市"
  },
  {
    "pinYin" : "Xinzhou",
    "parentId" : "140000",
    "shortName" : "忻州",
    "cityCode" : "0350",
    "mergerName" : "中国,山西省,忻州市",
    "levelType" : "2",
    "lng" : "112.733538",
    "lat" : "38.41769",
    "ID" : "140900",
    "name" : "忻州市"
  },
  {
    "pinYin" : "Xinfu",
    "parentId" : "140900",
    "shortName" : "忻府",
    "cityCode" : "0350",
    "mergerName" : "中国,山西省,忻州市,忻府区",
    "levelType" : "3",
    "lng" : "112.74603",
    "lat" : "38.40414",
    "ID" : "140902",
    "name" : "忻府区"
  },
  {
    "pinYin" : "Dingxiang",
    "parentId" : "140900",
    "shortName" : "定襄",
    "cityCode" : "0350",
    "mergerName" : "中国,山西省,忻州市,定襄县",
    "levelType" : "3",
    "lng" : "112.95733",
    "lat" : "38.47387",
    "ID" : "140921",
    "name" : "定襄县"
  },
  {
    "pinYin" : "Wutai",
    "parentId" : "140900",
    "shortName" : "五台",
    "cityCode" : "0350",
    "mergerName" : "中国,山西省,忻州市,五台县",
    "levelType" : "3",
    "lng" : "113.25256",
    "lat" : "38.72774",
    "ID" : "140922",
    "name" : "五台县"
  },
  {
    "pinYin" : "Daixian",
    "parentId" : "140900",
    "shortName" : "代县",
    "cityCode" : "0350",
    "mergerName" : "中国,山西省,忻州市,代县",
    "levelType" : "3",
    "lng" : "112.95913",
    "lat" : "39.06717",
    "ID" : "140923",
    "name" : "代县"
  },
  {
    "pinYin" : "Fanshi",
    "parentId" : "140900",
    "shortName" : "繁峙",
    "cityCode" : "0350",
    "mergerName" : "中国,山西省,忻州市,繁峙县",
    "levelType" : "3",
    "lng" : "113.26303",
    "lat" : "39.18886",
    "ID" : "140924",
    "name" : "繁峙县"
  },
  {
    "pinYin" : "Ningwu",
    "parentId" : "140900",
    "shortName" : "宁武",
    "cityCode" : "0350",
    "mergerName" : "中国,山西省,忻州市,宁武县",
    "levelType" : "3",
    "lng" : "112.30423",
    "lat" : "39.00211",
    "ID" : "140925",
    "name" : "宁武县"
  },
  {
    "pinYin" : "Jingle",
    "parentId" : "140900",
    "shortName" : "静乐",
    "cityCode" : "0350",
    "mergerName" : "中国,山西省,忻州市,静乐县",
    "levelType" : "3",
    "lng" : "111.94158",
    "lat" : "38.3602",
    "ID" : "140926",
    "name" : "静乐县"
  },
  {
    "pinYin" : "Shenchi",
    "parentId" : "140900",
    "shortName" : "神池",
    "cityCode" : "0350",
    "mergerName" : "中国,山西省,忻州市,神池县",
    "levelType" : "3",
    "lng" : "112.20541",
    "lat" : "39.09",
    "ID" : "140927",
    "name" : "神池县"
  },
  {
    "pinYin" : "Wuzhai",
    "parentId" : "140900",
    "shortName" : "五寨",
    "cityCode" : "0350",
    "mergerName" : "中国,山西省,忻州市,五寨县",
    "levelType" : "3",
    "lng" : "111.8489",
    "lat" : "38.90757",
    "ID" : "140928",
    "name" : "五寨县"
  },
  {
    "pinYin" : "Kelan",
    "parentId" : "140900",
    "shortName" : "岢岚",
    "cityCode" : "0350",
    "mergerName" : "中国,山西省,忻州市,岢岚县",
    "levelType" : "3",
    "lng" : "111.57388",
    "lat" : "38.70452",
    "ID" : "140929",
    "name" : "岢岚县"
  },
  {
    "pinYin" : "Hequ",
    "parentId" : "140900",
    "shortName" : "河曲",
    "cityCode" : "0350",
    "mergerName" : "中国,山西省,忻州市,河曲县",
    "levelType" : "3",
    "lng" : "111.13821",
    "lat" : "39.38439",
    "ID" : "140930",
    "name" : "河曲县"
  },
  {
    "pinYin" : "Baode",
    "parentId" : "140900",
    "shortName" : "保德",
    "cityCode" : "0350",
    "mergerName" : "中国,山西省,忻州市,保德县",
    "levelType" : "3",
    "lng" : "111.08656",
    "lat" : "39.02248",
    "ID" : "140931",
    "name" : "保德县"
  },
  {
    "pinYin" : "Pianguan",
    "parentId" : "140900",
    "shortName" : "偏关",
    "cityCode" : "0350",
    "mergerName" : "中国,山西省,忻州市,偏关县",
    "levelType" : "3",
    "lng" : "111.50863",
    "lat" : "39.43609",
    "ID" : "140932",
    "name" : "偏关县"
  },
  {
    "pinYin" : "Yuanping",
    "parentId" : "140900",
    "shortName" : "原平",
    "cityCode" : "0350",
    "mergerName" : "中国,山西省,忻州市,原平市",
    "levelType" : "3",
    "lng" : "112.70584",
    "lat" : "38.73181",
    "ID" : "140981",
    "name" : "原平市"
  },
  {
    "pinYin" : "Linfen",
    "parentId" : "140000",
    "shortName" : "临汾",
    "cityCode" : "0357",
    "mergerName" : "中国,山西省,临汾市",
    "levelType" : "2",
    "lng" : "111.517973",
    "lat" : "36.08415",
    "ID" : "141000",
    "name" : "临汾市"
  },
  {
    "pinYin" : "Yaodu",
    "parentId" : "141000",
    "shortName" : "尧都",
    "cityCode" : "0357",
    "mergerName" : "中国,山西省,临汾市,尧都区",
    "levelType" : "3",
    "lng" : "111.5787",
    "lat" : "36.08298",
    "ID" : "141002",
    "name" : "尧都区"
  },
  {
    "pinYin" : "Quwo",
    "parentId" : "141000",
    "shortName" : "曲沃",
    "cityCode" : "0357",
    "mergerName" : "中国,山西省,临汾市,曲沃县",
    "levelType" : "3",
    "lng" : "111.47525",
    "lat" : "35.64119",
    "ID" : "141021",
    "name" : "曲沃县"
  },
  {
    "pinYin" : "Yicheng",
    "parentId" : "141000",
    "shortName" : "翼城",
    "cityCode" : "0357",
    "mergerName" : "中国,山西省,临汾市,翼城县",
    "levelType" : "3",
    "lng" : "111.7181",
    "lat" : "35.73881",
    "ID" : "141022",
    "name" : "翼城县"
  },
  {
    "pinYin" : "Xiangfen",
    "parentId" : "141000",
    "shortName" : "襄汾",
    "cityCode" : "0357",
    "mergerName" : "中国,山西省,临汾市,襄汾县",
    "levelType" : "3",
    "lng" : "111.44204",
    "lat" : "35.87711",
    "ID" : "141023",
    "name" : "襄汾县"
  },
  {
    "pinYin" : "Hongtong",
    "parentId" : "141000",
    "shortName" : "洪洞",
    "cityCode" : "0357",
    "mergerName" : "中国,山西省,临汾市,洪洞县",
    "levelType" : "3",
    "lng" : "111.67501",
    "lat" : "36.25425",
    "ID" : "141024",
    "name" : "洪洞县"
  },
  {
    "pinYin" : "Guxian",
    "parentId" : "141000",
    "shortName" : "古县",
    "cityCode" : "0357",
    "mergerName" : "中国,山西省,临汾市,古县",
    "levelType" : "3",
    "lng" : "111.92041",
    "lat" : "36.26688",
    "ID" : "141025",
    "name" : "古县"
  },
  {
    "pinYin" : "Anze",
    "parentId" : "141000",
    "shortName" : "安泽",
    "cityCode" : "0357",
    "mergerName" : "中国,山西省,临汾市,安泽县",
    "levelType" : "3",
    "lng" : "112.24981",
    "lat" : "36.14803",
    "ID" : "141026",
    "name" : "安泽县"
  },
  {
    "pinYin" : "Fushan",
    "parentId" : "141000",
    "shortName" : "浮山",
    "cityCode" : "0357",
    "mergerName" : "中国,山西省,临汾市,浮山县",
    "levelType" : "3",
    "lng" : "111.84744",
    "lat" : "35.96854",
    "ID" : "141027",
    "name" : "浮山县"
  },
  {
    "pinYin" : "Jixian",
    "parentId" : "141000",
    "shortName" : "吉县",
    "cityCode" : "0357",
    "mergerName" : "中国,山西省,临汾市,吉县",
    "levelType" : "3",
    "lng" : "110.68148",
    "lat" : "36.09873",
    "ID" : "141028",
    "name" : "吉县"
  },
  {
    "pinYin" : "Xiangning",
    "parentId" : "141000",
    "shortName" : "乡宁",
    "cityCode" : "0357",
    "mergerName" : "中国,山西省,临汾市,乡宁县",
    "levelType" : "3",
    "lng" : "110.84652",
    "lat" : "35.97072",
    "ID" : "141029",
    "name" : "乡宁县"
  },
  {
    "pinYin" : "Daning",
    "parentId" : "141000",
    "shortName" : "大宁",
    "cityCode" : "0357",
    "mergerName" : "中国,山西省,临汾市,大宁县",
    "levelType" : "3",
    "lng" : "110.75216",
    "lat" : "36.46624",
    "ID" : "141030",
    "name" : "大宁县"
  },
  {
    "pinYin" : "Xixian",
    "parentId" : "141000",
    "shortName" : "隰县",
    "cityCode" : "0357",
    "mergerName" : "中国,山西省,临汾市,隰县",
    "levelType" : "3",
    "lng" : "110.93881",
    "lat" : "36.69258",
    "ID" : "141031",
    "name" : "隰县"
  },
  {
    "pinYin" : "Yonghe",
    "parentId" : "141000",
    "shortName" : "永和",
    "cityCode" : "0357",
    "mergerName" : "中国,山西省,临汾市,永和县",
    "levelType" : "3",
    "lng" : "110.63168",
    "lat" : "36.7584",
    "ID" : "141032",
    "name" : "永和县"
  },
  {
    "pinYin" : "Puxian",
    "parentId" : "141000",
    "shortName" : "蒲县",
    "cityCode" : "0357",
    "mergerName" : "中国,山西省,临汾市,蒲县",
    "levelType" : "3",
    "lng" : "111.09674",
    "lat" : "36.41243",
    "ID" : "141033",
    "name" : "蒲县"
  },
  {
    "pinYin" : "Fenxi",
    "parentId" : "141000",
    "shortName" : "汾西",
    "cityCode" : "0357",
    "mergerName" : "中国,山西省,临汾市,汾西县",
    "levelType" : "3",
    "lng" : "111.56811",
    "lat" : "36.65063",
    "ID" : "141034",
    "name" : "汾西县"
  },
  {
    "pinYin" : "Houma",
    "parentId" : "141000",
    "shortName" : "侯马",
    "cityCode" : "0357",
    "mergerName" : "中国,山西省,临汾市,侯马市",
    "levelType" : "3",
    "lng" : "111.37207",
    "lat" : "35.61903",
    "ID" : "141081",
    "name" : "侯马市"
  },
  {
    "pinYin" : "Huozhou",
    "parentId" : "141000",
    "shortName" : "霍州",
    "cityCode" : "0357",
    "mergerName" : "中国,山西省,临汾市,霍州市",
    "levelType" : "3",
    "lng" : "111.755",
    "lat" : "36.5638",
    "ID" : "141082",
    "name" : "霍州市"
  },
  {
    "pinYin" : "Lvliang",
    "parentId" : "140000",
    "shortName" : "吕梁",
    "cityCode" : "0358",
    "mergerName" : "中国,山西省,吕梁市",
    "levelType" : "2",
    "lng" : "111.134335",
    "lat" : "37.524366",
    "ID" : "141100",
    "name" : "吕梁市"
  },
  {
    "pinYin" : "Lishi",
    "parentId" : "141100",
    "shortName" : "离石",
    "cityCode" : "0358",
    "mergerName" : "中国,山西省,吕梁市,离石区",
    "levelType" : "3",
    "lng" : "111.15059",
    "lat" : "37.5177",
    "ID" : "141102",
    "name" : "离石区"
  },
  {
    "pinYin" : "Wenshui",
    "parentId" : "141100",
    "shortName" : "文水",
    "cityCode" : "0358",
    "mergerName" : "中国,山西省,吕梁市,文水县",
    "levelType" : "3",
    "lng" : "112.02829",
    "lat" : "37.43841",
    "ID" : "141121",
    "name" : "文水县"
  },
  {
    "pinYin" : "Jiaocheng",
    "parentId" : "141100",
    "shortName" : "交城",
    "cityCode" : "0358",
    "mergerName" : "中国,山西省,吕梁市,交城县",
    "levelType" : "3",
    "lng" : "112.1585",
    "lat" : "37.5512",
    "ID" : "141122",
    "name" : "交城县"
  },
  {
    "pinYin" : "Xingxian",
    "parentId" : "141100",
    "shortName" : "兴县",
    "cityCode" : "0358",
    "mergerName" : "中国,山西省,吕梁市,兴县",
    "levelType" : "3",
    "lng" : "111.12692",
    "lat" : "38.46321",
    "ID" : "141123",
    "name" : "兴县"
  },
  {
    "pinYin" : "Linxian",
    "parentId" : "141100",
    "shortName" : "临县",
    "cityCode" : "0358",
    "mergerName" : "中国,山西省,吕梁市,临县",
    "levelType" : "3",
    "lng" : "110.99282",
    "lat" : "37.95271",
    "ID" : "141124",
    "name" : "临县"
  },
  {
    "pinYin" : "Liulin",
    "parentId" : "141100",
    "shortName" : "柳林",
    "cityCode" : "0358",
    "mergerName" : "中国,山西省,吕梁市,柳林县",
    "levelType" : "3",
    "lng" : "110.88922",
    "lat" : "37.42932",
    "ID" : "141125",
    "name" : "柳林县"
  },
  {
    "pinYin" : "Shilou",
    "parentId" : "141100",
    "shortName" : "石楼",
    "cityCode" : "0358",
    "mergerName" : "中国,山西省,吕梁市,石楼县",
    "levelType" : "3",
    "lng" : "110.8352",
    "lat" : "36.99731",
    "ID" : "141126",
    "name" : "石楼县"
  },
  {
    "pinYin" : "Lanxian",
    "parentId" : "141100",
    "shortName" : "岚县",
    "cityCode" : "0358",
    "mergerName" : "中国,山西省,吕梁市,岚县",
    "levelType" : "3",
    "lng" : "111.67627",
    "lat" : "38.27874",
    "ID" : "141127",
    "name" : "岚县"
  },
  {
    "pinYin" : "Fangshan",
    "parentId" : "141100",
    "shortName" : "方山",
    "cityCode" : "0358",
    "mergerName" : "中国,山西省,吕梁市,方山县",
    "levelType" : "3",
    "lng" : "111.24011",
    "lat" : "37.88979",
    "ID" : "141128",
    "name" : "方山县"
  },
  {
    "pinYin" : "Zhongyang",
    "parentId" : "141100",
    "shortName" : "中阳",
    "cityCode" : "0358",
    "mergerName" : "中国,山西省,吕梁市,中阳县",
    "levelType" : "3",
    "lng" : "111.1795",
    "lat" : "37.35715",
    "ID" : "141129",
    "name" : "中阳县"
  },
  {
    "pinYin" : "Jiaokou",
    "parentId" : "141100",
    "shortName" : "交口",
    "cityCode" : "0358",
    "mergerName" : "中国,山西省,吕梁市,交口县",
    "levelType" : "3",
    "lng" : "111.18103",
    "lat" : "36.98213",
    "ID" : "141130",
    "name" : "交口县"
  },
  {
    "pinYin" : "Xiaoyi",
    "parentId" : "141100",
    "shortName" : "孝义",
    "cityCode" : "0358",
    "mergerName" : "中国,山西省,吕梁市,孝义市",
    "levelType" : "3",
    "lng" : "111.77362",
    "lat" : "37.14414",
    "ID" : "141181",
    "name" : "孝义市"
  },
  {
    "pinYin" : "Fenyang",
    "parentId" : "141100",
    "shortName" : "汾阳",
    "cityCode" : "0358",
    "mergerName" : "中国,山西省,吕梁市,汾阳市",
    "levelType" : "3",
    "lng" : "111.7882",
    "lat" : "37.26605",
    "ID" : "141182",
    "name" : "汾阳市"
  },
  {
    "pinYin" : "Inner Mongolia",
    "parentId" : "100000",
    "shortName" : "内蒙古",
    "cityCode" : "",
    "mergerName" : "中国,内蒙古自治区",
    "levelType" : "1",
    "lng" : "111.670801",
    "lat" : "40.818311",
    "ID" : "150000",
    "name" : "内蒙古自治区"
  },
  {
    "pinYin" : "Hohhot",
    "parentId" : "150000",
    "shortName" : "呼和浩特",
    "cityCode" : "0471",
    "mergerName" : "中国,内蒙古自治区,呼和浩特市",
    "levelType" : "2",
    "lng" : "111.670801",
    "lat" : "40.818311",
    "ID" : "150100",
    "name" : "呼和浩特市"
  },
  {
    "pinYin" : "Xincheng",
    "parentId" : "150100",
    "shortName" : "新城",
    "cityCode" : "0471",
    "mergerName" : "中国,内蒙古自治区,呼和浩特市,新城区",
    "levelType" : "3",
    "lng" : "111.66554",
    "lat" : "40.85828",
    "ID" : "150102",
    "name" : "新城区"
  },
  {
    "pinYin" : "Huimin",
    "parentId" : "150100",
    "shortName" : "回民",
    "cityCode" : "0471",
    "mergerName" : "中国,内蒙古自治区,呼和浩特市,回民区",
    "levelType" : "3",
    "lng" : "111.62402",
    "lat" : "40.80827",
    "ID" : "150103",
    "name" : "回民区"
  },
  {
    "pinYin" : "Yuquan",
    "parentId" : "150100",
    "shortName" : "玉泉",
    "cityCode" : "0471",
    "mergerName" : "中国,内蒙古自治区,呼和浩特市,玉泉区",
    "levelType" : "3",
    "lng" : "111.67456",
    "lat" : "40.75227",
    "ID" : "150104",
    "name" : "玉泉区"
  },
  {
    "pinYin" : "Saihan",
    "parentId" : "150100",
    "shortName" : "赛罕",
    "cityCode" : "0471",
    "mergerName" : "中国,内蒙古自治区,呼和浩特市,赛罕区",
    "levelType" : "3",
    "lng" : "111.70224",
    "lat" : "40.79207",
    "ID" : "150105",
    "name" : "赛罕区"
  },
  {
    "pinYin" : "Tumotezuoqi",
    "parentId" : "150100",
    "shortName" : "土默特左旗",
    "cityCode" : "0471",
    "mergerName" : "中国,内蒙古自治区,呼和浩特市,土默特左旗",
    "levelType" : "3",
    "lng" : "111.14898",
    "lat" : "40.72229",
    "ID" : "150121",
    "name" : "土默特左旗"
  },
  {
    "pinYin" : "Tuoketuo",
    "parentId" : "150100",
    "shortName" : "托克托",
    "cityCode" : "0471",
    "mergerName" : "中国,内蒙古自治区,呼和浩特市,托克托县",
    "levelType" : "3",
    "lng" : "111.19101",
    "lat" : "40.27492",
    "ID" : "150122",
    "name" : "托克托县"
  },
  {
    "pinYin" : "Helingeer",
    "parentId" : "150100",
    "shortName" : "和林格尔",
    "cityCode" : "0471",
    "mergerName" : "中国,内蒙古自治区,呼和浩特市,和林格尔县",
    "levelType" : "3",
    "lng" : "111.82205",
    "lat" : "40.37892",
    "ID" : "150123",
    "name" : "和林格尔县"
  },
  {
    "pinYin" : "Qingshuihe",
    "parentId" : "150100",
    "shortName" : "清水河",
    "cityCode" : "0471",
    "mergerName" : "中国,内蒙古自治区,呼和浩特市,清水河县",
    "levelType" : "3",
    "lng" : "111.68316",
    "lat" : "39.9097",
    "ID" : "150124",
    "name" : "清水河县"
  },
  {
    "pinYin" : "Wuchuan",
    "parentId" : "150100",
    "shortName" : "武川",
    "cityCode" : "0471",
    "mergerName" : "中国,内蒙古自治区,呼和浩特市,武川县",
    "levelType" : "3",
    "lng" : "111.45785",
    "lat" : "41.09289",
    "ID" : "150125",
    "name" : "武川县"
  },
  {
    "pinYin" : "Baotou",
    "parentId" : "150000",
    "shortName" : "包头",
    "cityCode" : "0472",
    "mergerName" : "中国,内蒙古自治区,包头市",
    "levelType" : "2",
    "lng" : "109.840405",
    "lat" : "40.658168",
    "ID" : "150200",
    "name" : "包头市"
  },
  {
    "pinYin" : "Donghe",
    "parentId" : "150200",
    "shortName" : "东河",
    "cityCode" : "0472",
    "mergerName" : "中国,内蒙古自治区,包头市,东河区",
    "levelType" : "3",
    "lng" : "110.0462",
    "lat" : "40.58237",
    "ID" : "150202",
    "name" : "东河区"
  },
  {
    "pinYin" : "Kundulun",
    "parentId" : "150200",
    "shortName" : "昆都仑",
    "cityCode" : "0472",
    "mergerName" : "中国,内蒙古自治区,包头市,昆都仑区",
    "levelType" : "3",
    "lng" : "109.83862",
    "lat" : "40.64175",
    "ID" : "150203",
    "name" : "昆都仑区"
  },
  {
    "pinYin" : "Qingshan",
    "parentId" : "150200",
    "shortName" : "青山",
    "cityCode" : "0472",
    "mergerName" : "中国,内蒙古自治区,包头市,青山区",
    "levelType" : "3",
    "lng" : "109.90131",
    "lat" : "40.64329",
    "ID" : "150204",
    "name" : "青山区"
  },
  {
    "pinYin" : "Shiguai",
    "parentId" : "150200",
    "shortName" : "石拐",
    "cityCode" : "0472",
    "mergerName" : "中国,内蒙古自治区,包头市,石拐区",
    "levelType" : "3",
    "lng" : "110.27322",
    "lat" : "40.67297",
    "ID" : "150205",
    "name" : "石拐区"
  },
  {
    "pinYin" : "Baiyunebokuangqu",
    "parentId" : "150200",
    "shortName" : "白云鄂博矿区",
    "cityCode" : "0472",
    "mergerName" : "中国,内蒙古自治区,包头市,白云鄂博矿区",
    "levelType" : "3",
    "lng" : "109.97367",
    "lat" : "41.76968",
    "ID" : "150206",
    "name" : "白云鄂博矿区"
  },
  {
    "pinYin" : "Jiuyuan",
    "parentId" : "150200",
    "shortName" : "九原",
    "cityCode" : "0472",
    "mergerName" : "中国,内蒙古自治区,包头市,九原区",
    "levelType" : "3",
    "lng" : "109.96496",
    "lat" : "40.60554",
    "ID" : "150207",
    "name" : "九原区"
  },
  {
    "pinYin" : "Tumoteyouqi",
    "parentId" : "150200",
    "shortName" : "土默特右旗",
    "cityCode" : "0472",
    "mergerName" : "中国,内蒙古自治区,包头市,土默特右旗",
    "levelType" : "3",
    "lng" : "110.52417",
    "lat" : "40.5688",
    "ID" : "150221",
    "name" : "土默特右旗"
  },
  {
    "pinYin" : "Guyang",
    "parentId" : "150200",
    "shortName" : "固阳",
    "cityCode" : "0472",
    "mergerName" : "中国,内蒙古自治区,包头市,固阳县",
    "levelType" : "3",
    "lng" : "110.06372",
    "lat" : "41.01851",
    "ID" : "150222",
    "name" : "固阳县"
  },
  {
    "pinYin" : "Damaoqi",
    "parentId" : "150200",
    "shortName" : "达茂旗",
    "cityCode" : "0472",
    "mergerName" : "中国,内蒙古自治区,包头市,达尔罕茂明安联合旗",
    "levelType" : "3",
    "lng" : "110.43258",
    "lat" : "41.69875",
    "ID" : "150223",
    "name" : "达尔罕茂明安联合旗"
  },
  {
    "pinYin" : "Wuhai",
    "parentId" : "150000",
    "shortName" : "乌海",
    "cityCode" : "0473",
    "mergerName" : "中国,内蒙古自治区,乌海市",
    "levelType" : "2",
    "lng" : "106.825563",
    "lat" : "39.673734",
    "ID" : "150300",
    "name" : "乌海市"
  },
  {
    "pinYin" : "Haibowan",
    "parentId" : "150300",
    "shortName" : "海勃湾",
    "cityCode" : "0473",
    "mergerName" : "中国,内蒙古自治区,乌海市,海勃湾区",
    "levelType" : "3",
    "lng" : "106.8222",
    "lat" : "39.66955",
    "ID" : "150302",
    "name" : "海勃湾区"
  },
  {
    "pinYin" : "Hainan",
    "parentId" : "150300",
    "shortName" : "海南",
    "cityCode" : "0473",
    "mergerName" : "中国,内蒙古自治区,乌海市,海南区",
    "levelType" : "3",
    "lng" : "106.88656",
    "lat" : "39.44128",
    "ID" : "150303",
    "name" : "海南区"
  },
  {
    "pinYin" : "Wuda",
    "parentId" : "150300",
    "shortName" : "乌达",
    "cityCode" : "0473",
    "mergerName" : "中国,内蒙古自治区,乌海市,乌达区",
    "levelType" : "3",
    "lng" : "106.72723",
    "lat" : "39.505",
    "ID" : "150304",
    "name" : "乌达区"
  },
  {
    "pinYin" : "Chifeng",
    "parentId" : "150000",
    "shortName" : "赤峰",
    "cityCode" : "0476",
    "mergerName" : "中国,内蒙古自治区,赤峰市",
    "levelType" : "2",
    "lng" : "118.956806",
    "lat" : "42.275317",
    "ID" : "150400",
    "name" : "赤峰市"
  },
  {
    "pinYin" : "Hongshan",
    "parentId" : "150400",
    "shortName" : "红山",
    "cityCode" : "0476",
    "mergerName" : "中国,内蒙古自治区,赤峰市,红山区",
    "levelType" : "3",
    "lng" : "118.95755",
    "lat" : "42.24312",
    "ID" : "150402",
    "name" : "红山区"
  },
  {
    "pinYin" : "Yuanbaoshan",
    "parentId" : "150400",
    "shortName" : "元宝山",
    "cityCode" : "0476",
    "mergerName" : "中国,内蒙古自治区,赤峰市,元宝山区",
    "levelType" : "3",
    "lng" : "119.28921",
    "lat" : "42.04005",
    "ID" : "150403",
    "name" : "元宝山区"
  },
  {
    "pinYin" : "Songshan",
    "parentId" : "150400",
    "shortName" : "松山",
    "cityCode" : "0476",
    "mergerName" : "中国,内蒙古自治区,赤峰市,松山区",
    "levelType" : "3",
    "lng" : "118.9328",
    "lat" : "42.28613",
    "ID" : "150404",
    "name" : "松山区"
  },
  {
    "pinYin" : "Alukeerqinqi",
    "parentId" : "150400",
    "shortName" : "阿鲁科尔沁旗",
    "cityCode" : "0476",
    "mergerName" : "中国,内蒙古自治区,赤峰市,阿鲁科尔沁旗",
    "levelType" : "3",
    "lng" : "120.06527",
    "lat" : "43.87988",
    "ID" : "150421",
    "name" : "阿鲁科尔沁旗"
  },
  {
    "pinYin" : "Balinzuoqi",
    "parentId" : "150400",
    "shortName" : "巴林左旗",
    "cityCode" : "0476",
    "mergerName" : "中国,内蒙古自治区,赤峰市,巴林左旗",
    "levelType" : "3",
    "lng" : "119.38012",
    "lat" : "43.97031",
    "ID" : "150422",
    "name" : "巴林左旗"
  },
  {
    "pinYin" : "Balinyouqi",
    "parentId" : "150400",
    "shortName" : "巴林右旗",
    "cityCode" : "0476",
    "mergerName" : "中国,内蒙古自治区,赤峰市,巴林右旗",
    "levelType" : "3",
    "lng" : "118.66461",
    "lat" : "43.53387",
    "ID" : "150423",
    "name" : "巴林右旗"
  },
  {
    "pinYin" : "Linxi",
    "parentId" : "150400",
    "shortName" : "林西",
    "cityCode" : "0476",
    "mergerName" : "中国,内蒙古自治区,赤峰市,林西县",
    "levelType" : "3",
    "lng" : "118.04733",
    "lat" : "43.61165",
    "ID" : "150424",
    "name" : "林西县"
  },
  {
    "pinYin" : "Keshiketengqi",
    "parentId" : "150400",
    "shortName" : "克什克腾旗",
    "cityCode" : "0476",
    "mergerName" : "中国,内蒙古自治区,赤峰市,克什克腾旗",
    "levelType" : "3",
    "lng" : "117.54562",
    "lat" : "43.26501",
    "ID" : "150425",
    "name" : "克什克腾旗"
  },